{
"type": "FeatureCollection",
"name": "Underground_Stations",
"crs": { "type": "name", "properties": { "name": "urn:ogc:def:crs:OGC:1.3:CRS84" } },
"features": [
{ "type": "Feature", "properties": { "OBJECTID": 111, "NAME": "St. Paul's", "LINES": "Central", "ATCOCODE": "940GZZLUSPU", "MODES": "bus, tube", "ACCESSIBILITY": "Not Accessible", "NIGHT_TUBE": "Yes", "NETWORK": "London Underground", "DATASET_LAST_UPDATED": "2021-11-29T00:00:00Z", "FULL_NAME": "St. Paul's station" }, "geometry": { "type": "Point", "coordinates": [ -0.097491844834556, 51.514954536171203, 0.0 ] } },
{ "type": "Feature", "properties": { "OBJECTID": 112, "NAME": "Mile End", "LINES": "District, Hammersmith & City, Central", "ATCOCODE": "940GZZLUMED", "MODES": "bus, tube", "ACCESSIBILITY": "Partially Accessible - Interchange Only", "NIGHT_TUBE": "Yes", "NETWORK": "London Underground", "DATASET_LAST_UPDATED": "2021-11-29T00:00:00Z", "FULL_NAME": "Mile End station" }, "geometry": { "type": "Point", "coordinates": [ -0.033740698179592, 51.525236255267302, 0.0 ] } },
{ "type": "Feature", "properties": { "OBJECTID": 113, "NAME": "Bethnal Green", "LINES": "Central", "ATCOCODE": "940GZZLUBLG", "MODES": "bus, tube", "ACCESSIBILITY": "Not Accessible", "NIGHT_TUBE": "Yes", "NETWORK": "London Underground", "DATASET_LAST_UPDATED": "2021-11-29T00:00:00Z", "FULL_NAME": "Bethnal Green station" }, "geometry": { "type": "Point", "coordinates": [ -0.054663268097705, 51.527238886975702, 0.0 ] } },
{ "type": "Feature", "properties": { "OBJECTID": 114, "NAME": "Leyton", "LINES": "Central", "ATCOCODE": "940GZZLULYN", "MODES": "bus, tube", "ACCESSIBILITY": "Not Accessible", "NIGHT_TUBE": "Yes", "NETWORK": "London Underground", "DATASET_LAST_UPDATED": "2021-11-29T00:00:00Z", "FULL_NAME": "Leyton station" }, "geometry": { "type": "Point", "coordinates": [ -0.00545943464187, 51.556605428939498, 0.0 ] } },
{ "type": "Feature", "properties": { "OBJECTID": 115, "NAME": "Snaresbrook", "LINES": "Central", "ATCOCODE": "940GZZLUSNB", "MODES": "bus, tube", "ACCESSIBILITY": "Not Accessible", "NIGHT_TUBE": "Yes", "NETWORK": "London Underground", "DATASET_LAST_UPDATED": "2021-11-29T00:00:00Z", "FULL_NAME": "Snaresbrook station" }, "geometry": { "type": "Point", "coordinates": [ 0.02142019395183, 51.580678471259603, 0.0 ] } },
{ "type": "Feature", "properties": { "OBJECTID": 116, "NAME": "Leytonstone", "LINES": "Central", "ATCOCODE": "940GZZLULYS", "MODES": "bus, tube", "ACCESSIBILITY": "Not Accessible", "NIGHT_TUBE": "Yes", "NETWORK": "London Underground", "DATASET_LAST_UPDATED": "2021-11-29T00:00:00Z", "FULL_NAME": "Leytonstone station" }, "geometry": { "type": "Point", "coordinates": [ 0.008210661403407, 51.568322255899297, 0.0 ] } },
{ "type": "Feature", "properties": { "OBJECTID": 117, "NAME": "Wanstead", "LINES": "Central", "ATCOCODE": "940GZZLUWSD", "MODES": "bus, tube", "ACCESSIBILITY": "Not Accessible", "NIGHT_TUBE": "Yes", "NETWORK": "London Underground", "DATASET_LAST_UPDATED": "2021-11-29T00:00:00Z", "FULL_NAME": "Wanstead station" }, "geometry": { "type": "Point", "coordinates": [ 0.028647479421731, 51.5756029971839, 0.0 ] } },
{ "type": "Feature", "properties": { "OBJECTID": 118, "NAME": "South Woodford", "LINES": "Central", "ATCOCODE": "940GZZLUSWF", "MODES": "bus, tube", "ACCESSIBILITY": "Partially Accessible", "NIGHT_TUBE": "Yes", "NETWORK": "London Underground", "DATASET_LAST_UPDATED": "2021-11-29T00:00:00Z", "FULL_NAME": "South Woodford station" }, "geometry": { "type": "Point", "coordinates": [ 0.027388896244925, 51.591893659186198, 0.0 ] } },
{ "type": "Feature", "properties": { "OBJECTID": 119, "NAME": "Newbury Park", "LINES": "Central", "ATCOCODE": "940GZZLUNBP", "MODES": "tube, bus", "ACCESSIBILITY": "Not Accessible", "NIGHT_TUBE": "Yes", "NETWORK": "London Underground", "DATASET_LAST_UPDATED": "2021-11-29T00:00:00Z", "FULL_NAME": "Newbury Park station" }, "geometry": { "type": "Point", "coordinates": [ 0.089947289618984, 51.575706743297403, 0.0 ] } },
{ "type": "Feature", "properties": { "OBJECTID": 120, "NAME": "Barkingside", "LINES": "Central", "ATCOCODE": "940GZZLUBKE", "MODES": "tube, bus", "ACCESSIBILITY": "Partially Accessible", "NIGHT_TUBE": "Yes", "NETWORK": "London Underground", "DATASET_LAST_UPDATED": "2021-11-29T00:00:00Z", "FULL_NAME": "Barkingside station" }, "geometry": { "type": "Point", "coordinates": [ 0.088651775446433, 51.585704957535803, 0.0 ] } },
{ "type": "Feature", "properties": { "OBJECTID": 121, "NAME": "Fairlop", "LINES": "Central", "ATCOCODE": "940GZZLUFLP", "MODES": "tube", "ACCESSIBILITY": "Not Accessible", "NIGHT_TUBE": "Yes", "NETWORK": "London Underground", "DATASET_LAST_UPDATED": "2021-11-29T00:00:00Z", "FULL_NAME": "Fairlop station" }, "geometry": { "type": "Point", "coordinates": [ 0.091079822153104, 51.595559483127701, 0.0 ] } },
{ "type": "Feature", "properties": { "OBJECTID": 122, "NAME": "Woodford", "LINES": "Central", "ATCOCODE": "940GZZLUWOF", "MODES": "tube, bus", "ACCESSIBILITY": "Fully Accessible", "NIGHT_TUBE": "Yes", "NETWORK": "London Underground", "DATASET_LAST_UPDATED": "2021-11-29T00:00:00Z", "FULL_NAME": "Woodford station" }, "geometry": { "type": "Point", "coordinates": [ 0.03403824393238, 51.606862424283499, 0.0 ] } },
{ "type": "Feature", "properties": { "OBJECTID": 123, "NAME": "Roding Valley", "LINES": "Central", "ATCOCODE": "940GZZLURVY", "MODES": "tube", "ACCESSIBILITY": "Fully Accessible", "NIGHT_TUBE": "No", "NETWORK": "London Underground", "DATASET_LAST_UPDATED": "2021-11-29T00:00:00Z", "FULL_NAME": "Roding Valley station" }, "geometry": { "type": "Point", "coordinates": [ 0.04373608548952, 51.617080091550299, 0.0 ] } },
{ "type": "Feature", "properties": { "OBJECTID": 124, "NAME": "Chigwell", "LINES": "Central", "ATCOCODE": "940GZZLUCWL", "MODES": "bus, tube", "ACCESSIBILITY": "Not Accessible", "NIGHT_TUBE": "No", "NETWORK": "London Underground", "DATASET_LAST_UPDATED": "2021-11-29T00:00:00Z", "FULL_NAME": "Chigwell station" }, "geometry": { "type": "Point", "coordinates": [ 0.075621709630792, 51.617654526478297, 0.0 ] } },
{ "type": "Feature", "properties": { "OBJECTID": 125, "NAME": "Paddington", "LINES": "Hammersmith & City, District, Circle, Bakerloo", "ATCOCODE": "940GZZLUPAC", "MODES": "tube", "ACCESSIBILITY": "Partially Accessible", "NIGHT_TUBE": "No", "NETWORK": "London Underground", "DATASET_LAST_UPDATED": "2021-11-29T00:00:00Z", "FULL_NAME": "Paddington station" }, "geometry": { "type": "Point", "coordinates": [ -0.17596495802982, 51.516563062743003, 0.0 ] } },
{ "type": "Feature", "properties": { "OBJECTID": 126, "NAME": "Plaistow", "LINES": "District, Hammersmith & City", "ATCOCODE": "940GZZLUPLW", "MODES": "tube, bus", "ACCESSIBILITY": "Not Accessible", "NIGHT_TUBE": "No", "NETWORK": "London Underground", "DATASET_LAST_UPDATED": "2021-11-29T00:00:00Z", "FULL_NAME": "Plaistow station" }, "geometry": { "type": "Point", "coordinates": [ 0.017016176421667, 51.531232778481801, 0.0 ] } },
{ "type": "Feature", "properties": { "OBJECTID": 127, "NAME": "Upton Park", "LINES": "District, Hammersmith & City", "ATCOCODE": "940GZZLUUPK", "MODES": "bus, tube", "ACCESSIBILITY": "Not Accessible", "NIGHT_TUBE": "No", "NETWORK": "London Underground", "DATASET_LAST_UPDATED": "2021-11-29T00:00:00Z", "FULL_NAME": "Upton Park station" }, "geometry": { "type": "Point", "coordinates": [ 0.03523731439865, 51.535381142130099, 0.0 ] } },
{ "type": "Feature", "properties": { "OBJECTID": 128, "NAME": "East Ham", "LINES": "District, Hammersmith & City", "ATCOCODE": "940GZZLUEHM", "MODES": "bus, tube", "ACCESSIBILITY": "Fully Accessible", "NIGHT_TUBE": "No", "NETWORK": "London Underground", "DATASET_LAST_UPDATED": "2021-11-29T00:00:00Z", "FULL_NAME": "East Ham station" }, "geometry": { "type": "Point", "coordinates": [ 0.052853536469472, 51.539408016337603, 0.0 ] } },
{ "type": "Feature", "properties": { "OBJECTID": 129, "NAME": "Ruislip Gardens", "LINES": "Central", "ATCOCODE": "940GZZLURSG", "MODES": "tube, bus", "ACCESSIBILITY": "Not Accessible", "NIGHT_TUBE": "No", "NETWORK": "London Underground", "DATASET_LAST_UPDATED": "2021-11-29T00:00:00Z", "FULL_NAME": "Ruislip Gardens station" }, "geometry": { "type": "Point", "coordinates": [ -0.410696109804698, 51.560776885119999, 0.0 ] } },
{ "type": "Feature", "properties": { "OBJECTID": 130, "NAME": "South Ruislip", "LINES": "Central", "ATCOCODE": "940GZZLUSRP", "MODES": "tube", "ACCESSIBILITY": "Not Accessible", "NIGHT_TUBE": "No", "NETWORK": "London Underground", "DATASET_LAST_UPDATED": "2021-11-29T00:00:00Z", "FULL_NAME": "South Ruislip station" }, "geometry": { "type": "Point", "coordinates": [ -0.398845328625941, 51.556861433018, 0.0 ] } },
{ "type": "Feature", "properties": { "OBJECTID": 131, "NAME": "Northolt", "LINES": "Central", "ATCOCODE": "940GZZLUNHT", "MODES": "tube, bus", "ACCESSIBILITY": "Not Accessible", "NIGHT_TUBE": "No", "NETWORK": "London Underground", "DATASET_LAST_UPDATED": "2021-11-29T00:00:00Z", "FULL_NAME": "Northolt station" }, "geometry": { "type": "Point", "coordinates": [ -0.368628937494066, 51.548260261656402, 0.0 ] } },
{ "type": "Feature", "properties": { "OBJECTID": 132, "NAME": "West Ruislip", "LINES": "Central", "ATCOCODE": "940GZZLUWRP", "MODES": "tube", "ACCESSIBILITY": "Not Accessible", "NIGHT_TUBE": "No", "NETWORK": "London Underground", "DATASET_LAST_UPDATED": "2021-11-29T00:00:00Z", "FULL_NAME": "West Ruislip station" }, "geometry": { "type": "Point", "coordinates": [ -0.437626140162556, 51.569631031310102, 0.0 ] } },
{ "type": "Feature", "properties": { "OBJECTID": 133, "NAME": "Upney", "LINES": "District", "ATCOCODE": "940GZZLUUPY", "MODES": "tube, bus", "ACCESSIBILITY": "Fully Accessible", "NIGHT_TUBE": "No", "NETWORK": "London Underground", "DATASET_LAST_UPDATED": "2021-11-29T00:00:00Z", "FULL_NAME": "Upney station" }, "geometry": { "type": "Point", "coordinates": [ 0.101580801616486, 51.5383556220537, 0.0 ] } },
{ "type": "Feature", "properties": { "OBJECTID": 134, "NAME": "Brent Cross", "LINES": "Northern", "ATCOCODE": "940GZZLUBTX", "MODES": "bus, tube", "ACCESSIBILITY": "Not Accessible", "NIGHT_TUBE": "Yes", "NETWORK": "London Underground", "DATASET_LAST_UPDATED": "2021-11-29T00:00:00Z", "FULL_NAME": "Brent Cross station" }, "geometry": { "type": "Point", "coordinates": [ -0.213759581683029, 51.576672011070798, 0.0 ] } },
{ "type": "Feature", "properties": { "OBJECTID": 135, "NAME": "Colindale", "LINES": "Northern", "ATCOCODE": "940GZZLUCND", "MODES": "tube, bus", "ACCESSIBILITY": "Not Accessible", "NIGHT_TUBE": "Yes", "NETWORK": "London Underground", "DATASET_LAST_UPDATED": "2021-11-29T00:00:00Z", "FULL_NAME": "Colindale station" }, "geometry": { "type": "Point", "coordinates": [ -0.249912887893222, 51.595448463150099, 0.0 ] } },
{ "type": "Feature", "properties": { "OBJECTID": 136, "NAME": "Burnt Oak", "LINES": "Northern", "ATCOCODE": "940GZZLUBTK", "MODES": "bus, tube", "ACCESSIBILITY": "Not Accessible", "NIGHT_TUBE": "Yes", "NETWORK": "London Underground", "DATASET_LAST_UPDATED": "2021-11-29T00:00:00Z", "FULL_NAME": "Burnt Oak station" }, "geometry": { "type": "Point", "coordinates": [ -0.263969437496311, 51.602836857157399, 0.0 ] } },
{ "type": "Feature", "properties": { "OBJECTID": 137, "NAME": "Mill Hill East", "LINES": "Northern", "ATCOCODE": "940GZZLUMHL", "MODES": "tube, bus", "ACCESSIBILITY": "Not Accessible", "NIGHT_TUBE": "Yes", "NETWORK": "London Underground", "DATASET_LAST_UPDATED": "2021-11-29T00:00:00Z", "FULL_NAME": "Mill Hill East station" }, "geometry": { "type": "Point", "coordinates": [ -0.21003599178201, 51.608236518939897, 0.0 ] } },
{ "type": "Feature", "properties": { "OBJECTID": 138, "NAME": "Golders Green", "LINES": "Northern", "ATCOCODE": "940GZZLUGGN", "MODES": "tube, bus", "ACCESSIBILITY": "Fully Accessible", "NIGHT_TUBE": "Yes", "NETWORK": "London Underground", "DATASET_LAST_UPDATED": "2021-11-29T00:00:00Z", "FULL_NAME": "Golders Green station" }, "geometry": { "type": "Point", "coordinates": [ -0.193997309394488, 51.572288905836601, 0.0 ] } },
{ "type": "Feature", "properties": { "OBJECTID": 139, "NAME": "Finchley Central", "LINES": "Northern", "ATCOCODE": "940GZZLUFYC", "MODES": "tube, bus", "ACCESSIBILITY": "Fully Accessible", "NIGHT_TUBE": "Yes", "NETWORK": "London Underground", "DATASET_LAST_UPDATED": "2021-11-29T00:00:00Z", "FULL_NAME": "Finchley Central station" }, "geometry": { "type": "Point", "coordinates": [ -0.19252922549939, 51.600934867932303, 0.0 ] } },
{ "type": "Feature", "properties": { "OBJECTID": 140, "NAME": "Sudbury Hill", "LINES": "Piccadilly", "ATCOCODE": "940GZZLUSUH", "MODES": "tube", "ACCESSIBILITY": "Not Accessible", "NIGHT_TUBE": "No", "NETWORK": "London Underground", "DATASET_LAST_UPDATED": "2021-11-29T00:00:00Z", "FULL_NAME": "Sudbury Hill station" }, "geometry": { "type": "Point", "coordinates": [ -0.33660181396072, 51.556966716028299, 0.0 ] } },
{ "type": "Feature", "properties": { "OBJECTID": 141, "NAME": "Sudbury Town", "LINES": "Piccadilly", "ATCOCODE": "940GZZLUSUT", "MODES": "tube, bus", "ACCESSIBILITY": "Fully Accessible", "NIGHT_TUBE": "No", "NETWORK": "London Underground", "DATASET_LAST_UPDATED": "2021-11-29T00:00:00Z", "FULL_NAME": "Sudbury Town station" }, "geometry": { "type": "Point", "coordinates": [ -0.315723404663266, 51.5508072804286, 0.0 ] } },
{ "type": "Feature", "properties": { "OBJECTID": 142, "NAME": "South Ealing", "LINES": "Piccadilly", "ATCOCODE": "940GZZLUSEA", "MODES": "tube, bus", "ACCESSIBILITY": "Not Accessible", "NIGHT_TUBE": "Yes", "NETWORK": "London Underground", "DATASET_LAST_UPDATED": "2021-11-29T00:00:00Z", "FULL_NAME": "South Ealing station" }, "geometry": { "type": "Point", "coordinates": [ -0.30748301640737, 51.500900357560504, 0.0 ] } },
{ "type": "Feature", "properties": { "OBJECTID": 143, "NAME": "Park Royal", "LINES": "Piccadilly", "ATCOCODE": "940GZZLUPKR", "MODES": "tube, bus", "ACCESSIBILITY": "Not Accessible", "NIGHT_TUBE": "No", "NETWORK": "London Underground", "DATASET_LAST_UPDATED": "2021-11-29T00:00:00Z", "FULL_NAME": "Park Royal station" }, "geometry": { "type": "Point", "coordinates": [ -0.283944537895108, 51.526481314541101, 0.0 ] } },
{ "type": "Feature", "properties": { "OBJECTID": 144, "NAME": "Alperton", "LINES": "Piccadilly", "ATCOCODE": "940GZZLUALP", "MODES": "tube, bus", "ACCESSIBILITY": "Not Accessible", "NIGHT_TUBE": "No", "NETWORK": "London Underground", "DATASET_LAST_UPDATED": "2021-11-29T00:00:00Z", "FULL_NAME": "Alperton station" }, "geometry": { "type": "Point", "coordinates": [ -0.299926137316424, 51.540732372674597, 0.0 ] } },
{ "type": "Feature", "properties": { "OBJECTID": 145, "NAME": "Hyde Park Corner", "LINES": "Piccadilly", "ATCOCODE": "940GZZLUHPC", "MODES": "tube, bus", "ACCESSIBILITY": "Not Accessible", "NIGHT_TUBE": "Yes", "NETWORK": "London Underground", "DATASET_LAST_UPDATED": "2021-11-29T00:00:00Z", "FULL_NAME": "Hyde Park Corner station" }, "geometry": { "type": "Point", "coordinates": [ -0.154124887061521, 51.502752855900603, 0.0 ] } },
{ "type": "Feature", "properties": { "OBJECTID": 146, "NAME": "Knightsbridge", "LINES": "Piccadilly", "ATCOCODE": "940GZZLUKNB", "MODES": "tube, bus", "ACCESSIBILITY": "Not Accessible", "NIGHT_TUBE": "Yes", "NETWORK": "London Underground", "DATASET_LAST_UPDATED": "2021-11-29T00:00:00Z", "FULL_NAME": "Knightsbridge station" }, "geometry": { "type": "Point", "coordinates": [ -0.161441486053111, 51.501242452004398, 0.0 ] } },
{ "type": "Feature", "properties": { "OBJECTID": 147, "NAME": "Leicester Square", "LINES": "Piccadilly, Northern", "ATCOCODE": "940GZZLULSQ", "MODES": "tube, bus", "ACCESSIBILITY": "Not Accessible", "NIGHT_TUBE": "Yes", "NETWORK": "London Underground", "DATASET_LAST_UPDATED": "2021-11-29T00:00:00Z", "FULL_NAME": "Leicester Square station" }, "geometry": { "type": "Point", "coordinates": [ -0.128306746943324, 51.511406180134799, 0.0 ] } },
{ "type": "Feature", "properties": { "OBJECTID": 148, "NAME": "Covent Garden", "LINES": "Piccadilly", "ATCOCODE": "940GZZLUCGN", "MODES": "tube", "ACCESSIBILITY": "Not Accessible", "NIGHT_TUBE": "Yes", "NETWORK": "London Underground", "DATASET_LAST_UPDATED": "2021-11-29T00:00:00Z", "FULL_NAME": "Covent Garden station" }, "geometry": { "type": "Point", "coordinates": [ -0.124341543174305, 51.513146078987297, 0.0 ] } },
{ "type": "Feature", "properties": { "OBJECTID": 149, "NAME": "Russell Square", "LINES": "Piccadilly", "ATCOCODE": "940GZZLURSQ", "MODES": "tube, bus", "ACCESSIBILITY": "Not Accessible", "NIGHT_TUBE": "Yes", "NETWORK": "London Underground", "DATASET_LAST_UPDATED": "2021-11-29T00:00:00Z", "FULL_NAME": "Russell Square station" }, "geometry": { "type": "Point", "coordinates": [ -0.124244105841182, 51.523060996691498, 0.0 ] } },
{ "type": "Feature", "properties": { "OBJECTID": 150, "NAME": "Holloway Road", "LINES": "Piccadilly", "ATCOCODE": "940GZZLUHWY", "MODES": "tube, bus", "ACCESSIBILITY": "Not Accessible", "NIGHT_TUBE": "Yes", "NETWORK": "London Underground", "DATASET_LAST_UPDATED": "2021-11-29T00:00:00Z", "FULL_NAME": "Holloway Road station" }, "geometry": { "type": "Point", "coordinates": [ -0.113237215123649, 51.552758210385399, 0.0 ] } },
{ "type": "Feature", "properties": { "OBJECTID": 151, "NAME": "Arsenal", "LINES": "Piccadilly", "ATCOCODE": "940GZZLUASL", "MODES": "tube", "ACCESSIBILITY": "Not Accessible", "NIGHT_TUBE": "Yes", "NETWORK": "London Underground", "DATASET_LAST_UPDATED": "2021-11-29T00:00:00Z", "FULL_NAME": "Arsenal station" }, "geometry": { "type": "Point", "coordinates": [ -0.107258995220346, 51.558618263065199, 0.0 ] } },
{ "type": "Feature", "properties": { "OBJECTID": 152, "NAME": "Arnos Grove", "LINES": "Piccadilly", "ATCOCODE": "940GZZLUASG", "MODES": "tube, bus", "ACCESSIBILITY": "Not Accessible", "NIGHT_TUBE": "Yes", "NETWORK": "London Underground", "DATASET_LAST_UPDATED": "2021-11-29T00:00:00Z", "FULL_NAME": "Arnos Grove station" }, "geometry": { "type": "Point", "coordinates": [ -0.133019683101503, 51.616455215324798, 0.0 ] } },
{ "type": "Feature", "properties": { "OBJECTID": 153, "NAME": "Southgate", "LINES": "Piccadilly", "ATCOCODE": "940GZZLUSGT", "MODES": "tube, bus", "ACCESSIBILITY": "Not Accessible", "NIGHT_TUBE": "Yes", "NETWORK": "London Underground", "DATASET_LAST_UPDATED": "2021-11-29T00:00:00Z", "FULL_NAME": "Southgate station" }, "geometry": { "type": "Point", "coordinates": [ -0.127736382206168, 51.632261248829899, 0.0 ] } },
{ "type": "Feature", "properties": { "OBJECTID": 154, "NAME": "Cockfosters", "LINES": "Piccadilly", "ATCOCODE": "940GZZLUCKS", "MODES": "bus, tube", "ACCESSIBILITY": "Not Accessible", "NIGHT_TUBE": "Yes", "NETWORK": "London Underground", "DATASET_LAST_UPDATED": "2021-11-29T00:00:00Z", "FULL_NAME": "Cockfosters station" }, "geometry": { "type": "Point", "coordinates": [ -0.149137109613063, 51.651531537822898, 0.0 ] } },
{ "type": "Feature", "properties": { "OBJECTID": 155, "NAME": "Oakwood", "LINES": "Piccadilly", "ATCOCODE": "910GENFCOAK", "MODES": "bus, national-rail, tube", "ACCESSIBILITY": "Fully Accessible", "NIGHT_TUBE": "Yes", "NETWORK": "London Underground", "DATASET_LAST_UPDATED": "2021-11-29T00:00:00Z", "FULL_NAME": "Oakwood station" }, "geometry": { "type": "Point", "coordinates": [ -0.131242593808805, 51.6473364234459, 0.0 ] } },
{ "type": "Feature", "properties": { "OBJECTID": 156, "NAME": "Manor House", "LINES": "Piccadilly", "ATCOCODE": "940GZZLUMRH", "MODES": "bus, tube", "ACCESSIBILITY": "Not Accessible", "NIGHT_TUBE": "Yes", "NETWORK": "London Underground", "DATASET_LAST_UPDATED": "2021-11-29T00:00:00Z", "FULL_NAME": "Manor House station" }, "geometry": { "type": "Point", "coordinates": [ -0.096038962334246, 51.570753585373197, 0.0 ] } },
{ "type": "Feature", "properties": { "OBJECTID": 157, "NAME": "Temple", "LINES": "District, Circle", "ATCOCODE": "940GZZLUTMP", "MODES": "tube, bus", "ACCESSIBILITY": "Not Accessible", "NIGHT_TUBE": "No", "NETWORK": "London Underground", "DATASET_LAST_UPDATED": "2021-11-29T00:00:00Z", "FULL_NAME": "Temple station" }, "geometry": { "type": "Point", "coordinates": [ -0.114226122796381, 51.510985945148597, 0.0 ] } },
{ "type": "Feature", "properties": { "OBJECTID": 158, "NAME": "Blackfriars", "LINES": "District, Circle", "ATCOCODE": "940GZZLUBKF", "MODES": "tube", "ACCESSIBILITY": "Fully Accessible", "NIGHT_TUBE": "No", "NETWORK": "London Underground", "DATASET_LAST_UPDATED": "2021-11-29T00:00:00Z", "FULL_NAME": "Blackfriars station" }, "geometry": { "type": "Point", "coordinates": [ -0.103603883187671, 51.5116263548801, 0.0 ] } },
{ "type": "Feature", "properties": { "OBJECTID": 159, "NAME": "Mansion House", "LINES": "District, Circle", "ATCOCODE": "940GZZLUMSH", "MODES": "tube, bus", "ACCESSIBILITY": "Not Accessible", "NIGHT_TUBE": "No", "NETWORK": "London Underground", "DATASET_LAST_UPDATED": "2021-11-29T00:00:00Z", "FULL_NAME": "Mansion House station" }, "geometry": { "type": "Point", "coordinates": [ -0.094079885333069, 51.511817980453301, 0.0 ] } },
{ "type": "Feature", "properties": { "OBJECTID": 160, "NAME": "Cannon Street", "LINES": "District, Circle", "ATCOCODE": "940GZZLUCST", "MODES": "tube", "ACCESSIBILITY": "Partially Accessible", "NIGHT_TUBE": "No", "NETWORK": "London Underground", "DATASET_LAST_UPDATED": "2021-11-29T00:00:00Z", "FULL_NAME": "Cannon Street station" }, "geometry": { "type": "Point", "coordinates": [ -0.090385961310068, 51.511474629808198, 0.0 ] } },
{ "type": "Feature", "properties": { "OBJECTID": 161, "NAME": "Tower Hill", "LINES": "District, Circle", "ATCOCODE": "940GZZLUTWH", "MODES": "tube", "ACCESSIBILITY": "Not Accessible", "NIGHT_TUBE": "No", "NETWORK": "London Underground", "DATASET_LAST_UPDATED": "2021-11-29T00:00:00Z", "FULL_NAME": "Tower Hill station" }, "geometry": { "type": "Point", "coordinates": [ -0.076500085324855, 51.5099465212841, 0.0 ] } },
{ "type": "Feature", "properties": { "OBJECTID": 162, "NAME": "Aldgate", "LINES": "Metropolitan, Circle", "ATCOCODE": "940GZZLUALD", "MODES": "bus, tube", "ACCESSIBILITY": "Not Accessible", "NIGHT_TUBE": "No", "NETWORK": "London Underground", "DATASET_LAST_UPDATED": "2021-11-29T00:00:00Z", "FULL_NAME": "Aldgate station" }, "geometry": { "type": "Point", "coordinates": [ -0.075822667815969, 51.514493899170702, 0.0 ] } },
{ "type": "Feature", "properties": { "OBJECTID": 163, "NAME": "Liverpool Street", "LINES": "Metropolitan, Central, Circle, Hammersmith & City", "ATCOCODE": "940GZZLULVT", "MODES": "tube", "ACCESSIBILITY": "Partially Accessible", "NIGHT_TUBE": "Yes", "NETWORK": "London Underground", "DATASET_LAST_UPDATED": "2021-11-29T00:00:00Z", "FULL_NAME": "Liverpool Street station" }, "geometry": { "type": "Point", "coordinates": [ -0.083187103332268, 51.5173539786175, 0.0 ] } },
{ "type": "Feature", "properties": { "OBJECTID": 164, "NAME": "Moorgate", "LINES": "Metropolitan, Northern, Circle, Hammersmith & City", "ATCOCODE": "940GZZLUMGT", "MODES": "tube", "ACCESSIBILITY": "Not Accessible", "NIGHT_TUBE": "No", "NETWORK": "London Underground", "DATASET_LAST_UPDATED": "2021-11-29T00:00:00Z", "FULL_NAME": "Moorgate station" }, "geometry": { "type": "Point", "coordinates": [ -0.089285420587671, 51.518364734125697, 0.0 ] } },
{ "type": "Feature", "properties": { "OBJECTID": 165, "NAME": "Barbican", "LINES": "Metropolitan, Circle, Hammersmith & City", "ATCOCODE": "940GZZLUBBN", "MODES": "tube, bus", "ACCESSIBILITY": "Not Accessible", "NIGHT_TUBE": "No", "NETWORK": "London Underground", "DATASET_LAST_UPDATED": "2021-11-29T00:00:00Z", "FULL_NAME": "Barbican station" }, "geometry": { "type": "Point", "coordinates": [ -0.098773979194686, 51.5202103844398, 0.0 ] } },
{ "type": "Feature", "properties": { "OBJECTID": 166, "NAME": "Farringdon", "LINES": "Metropolitan, Circle, Hammersmith & City", "ATCOCODE": "940GZZLUFCN", "MODES": "tube", "ACCESSIBILITY": "Fully Accessible", "NIGHT_TUBE": "No", "NETWORK": "London Underground", "DATASET_LAST_UPDATED": "2021-11-29T00:00:00Z", "FULL_NAME": "Farringdon station" }, "geometry": { "type": "Point", "coordinates": [ -0.105166098257485, 51.520472078357898, 0.0 ] } },
{ "type": "Feature", "properties": { "OBJECTID": 167, "NAME": "King's Cross St. Pancras", "LINES": "Metropolitan, Northern, Piccadilly, Circle, Victoria, Hammersmith & City", "ATCOCODE": "940GZZLUKSX", "MODES": "tube", "ACCESSIBILITY": "Fully Accessible", "NIGHT_TUBE": "Yes", "NETWORK": "London Underground", "DATASET_LAST_UPDATED": "2021-11-29T00:00:00Z", "FULL_NAME": "King's Cross St. Pancras station" }, "geometry": { "type": "Point", "coordinates": [ -0.124750344185488, 51.529787127413996, 0.0 ] } },
{ "type": "Feature", "properties": { "OBJECTID": 168, "NAME": "Euston Square", "LINES": "Metropolitan, Circle, Hammersmith & City", "ATCOCODE": "940GZZLUESQ", "MODES": "tube, bus", "ACCESSIBILITY": "Partially Accessible - Interchange Only", "NIGHT_TUBE": "No", "NETWORK": "London Underground", "DATASET_LAST_UPDATED": "2021-11-29T00:00:00Z", "FULL_NAME": "Euston Square station" }, "geometry": { "type": "Point", "coordinates": [ -0.135851312776002, 51.525634992274298, 0.0 ] } },
{ "type": "Feature", "properties": { "OBJECTID": 169, "NAME": "Baker Street", "LINES": "Metropolitan, Bakerloo, Circle, Jubilee, Hammersmith & City", "ATCOCODE": "940GZZLUBST", "MODES": "bus, tube", "ACCESSIBILITY": "Partially Accessible - Interchange Only", "NIGHT_TUBE": "Yes", "NETWORK": "London Underground", "DATASET_LAST_UPDATED": "2021-11-29T00:00:00Z", "FULL_NAME": "Baker Street station" }, "geometry": { "type": "Point", "coordinates": [ -0.157032980300198, 51.523003746322999, 0.0 ] } },
{ "type": "Feature", "properties": { "OBJECTID": 170, "NAME": "Edgware Road (Circle Line)", "LINES": "Circle", "ATCOCODE": "940GZZLUERC", "MODES": "bus, tube", "ACCESSIBILITY": "Partially Accessible - Interchange Only", "NIGHT_TUBE": "No", "NETWORK": "London Underground", "DATASET_LAST_UPDATED": "2021-11-29T00:00:00Z", "FULL_NAME": "Edgware Road (Circle Line) station" }, "geometry": { "type": "Point", "coordinates": [ -0.167748227536376, 51.519874113215998, 0.0 ] } },
{ "type": "Feature", "properties": { "OBJECTID": 171, "NAME": "Paddington", "LINES": "Hammersmith & City, District, Circle, Bakerloo", "ATCOCODE": "940GZZLUPAC", "MODES": "tube", "ACCESSIBILITY": "Partially Accessible", "NIGHT_TUBE": "No", "NETWORK": "London Underground", "DATASET_LAST_UPDATED": "2021-11-29T00:00:00Z", "FULL_NAME": "Paddington station" }, "geometry": { "type": "Point", "coordinates": [ -0.17536614215852, 51.515505171343797, 0.0 ] } },
{ "type": "Feature", "properties": { "OBJECTID": 172, "NAME": "Bayswater", "LINES": "District, Circle", "ATCOCODE": "940GZZLUBWT", "MODES": "tube, bus", "ACCESSIBILITY": "Not Accessible", "NIGHT_TUBE": "No", "NETWORK": "London Underground", "DATASET_LAST_UPDATED": "2021-11-29T00:00:00Z", "FULL_NAME": "Bayswater station" }, "geometry": { "type": "Point", "coordinates": [ -0.187898072385123, 51.512325419753402, 0.0 ] } },
{ "type": "Feature", "properties": { "OBJECTID": 173, "NAME": "High Street Kensington", "LINES": "District, Circle", "ATCOCODE": "940GZZLUHSK", "MODES": "tube, bus", "ACCESSIBILITY": "Partially Accessible - Interchange Only", "NIGHT_TUBE": "No", "NETWORK": "London Underground", "DATASET_LAST_UPDATED": "2021-11-29T00:00:00Z", "FULL_NAME": "High Street Kensington station" }, "geometry": { "type": "Point", "coordinates": [ -0.192181979243048, 51.500446308904202, 0.0 ] } },
{ "type": "Feature", "properties": { "OBJECTID": 174, "NAME": "Gloucester Road", "LINES": "District, Piccadilly, Circle", "ATCOCODE": "940GZZLUGTR", "MODES": "bus, tube", "ACCESSIBILITY": "Not Accessible", "NIGHT_TUBE": "Yes", "NETWORK": "London Underground", "DATASET_LAST_UPDATED": "2021-11-29T00:00:00Z", "FULL_NAME": "Gloucester Road station" }, "geometry": { "type": "Point", "coordinates": [ -0.18371055669604, 51.494489732690298, 0.0 ] } },
{ "type": "Feature", "properties": { "OBJECTID": 175, "NAME": "South Kensington", "LINES": "District, Piccadilly, Circle", "ATCOCODE": "940GZZLUSKS", "MODES": "bus, tube", "ACCESSIBILITY": "Partially Accessible - Interchange Only", "NIGHT_TUBE": "Yes", "NETWORK": "London Underground", "DATASET_LAST_UPDATED": "2021-11-29T00:00:00Z", "FULL_NAME": "South Kensington station" }, "geometry": { "type": "Point", "coordinates": [ -0.173140744694982, 51.494089686384498, 0.0 ] } },
{ "type": "Feature", "properties": { "OBJECTID": 176, "NAME": "Chiswick Park", "LINES": "District", "ATCOCODE": "940GZZLUCWP", "MODES": "bus, tube", "ACCESSIBILITY": "Not Accessible", "NIGHT_TUBE": "No", "NETWORK": "London Underground", "DATASET_LAST_UPDATED": "2021-11-29T00:00:00Z", "FULL_NAME": "Chiswick Park station" }, "geometry": { "type": "Point", "coordinates": [ -0.26854880833146, 51.494668288991598, 0.0 ] } },
{ "type": "Feature", "properties": { "OBJECTID": 177, "NAME": "Wimbledon Park", "LINES": "District", "ATCOCODE": "940GZZLUWIP", "MODES": "tube", "ACCESSIBILITY": "Not Accessible", "NIGHT_TUBE": "No", "NETWORK": "London Underground", "DATASET_LAST_UPDATED": "2021-11-29T00:00:00Z", "FULL_NAME": "Wimbledon Park station" }, "geometry": { "type": "Point", "coordinates": [ -0.199061896285376, 51.434054928079902, 0.0 ] } },
{ "type": "Feature", "properties": { "OBJECTID": 178, "NAME": "East Putney", "LINES": "District", "ATCOCODE": "940GZZLUEPY", "MODES": "tube, bus", "ACCESSIBILITY": "Not Accessible", "NIGHT_TUBE": "No", "NETWORK": "London Underground", "DATASET_LAST_UPDATED": "2021-11-29T00:00:00Z", "FULL_NAME": "East Putney station" }, "geometry": { "type": "Point", "coordinates": [ -0.21103973778595, 51.459149858838401, 0.0 ] } },
{ "type": "Feature", "properties": { "OBJECTID": 179, "NAME": "West Kensington", "LINES": "District", "ATCOCODE": "940GZZLUWKN", "MODES": "tube, bus", "ACCESSIBILITY": "Not Accessible", "NIGHT_TUBE": "No", "NETWORK": "London Underground", "DATASET_LAST_UPDATED": "2021-11-29T00:00:00Z", "FULL_NAME": "West Kensington station" }, "geometry": { "type": "Point", "coordinates": [ -0.205433285639364, 51.490791545430099, 0.0 ] } },
{ "type": "Feature", "properties": { "OBJECTID": 180, "NAME": "Parsons Green", "LINES": "District", "ATCOCODE": "940GZZLUPSG", "MODES": "tube", "ACCESSIBILITY": "Not Accessible", "NIGHT_TUBE": "No", "NETWORK": "London Underground", "DATASET_LAST_UPDATED": "2021-11-29T00:00:00Z", "FULL_NAME": "Parsons Green station" }, "geometry": { "type": "Point", "coordinates": [ -0.20173953648515, 51.4749860987056, 0.0 ] } },
{ "type": "Feature", "properties": { "OBJECTID": 181, "NAME": "White City", "LINES": "Central", "ATCOCODE": "940GZZLUWCY", "MODES": "bus, tube", "ACCESSIBILITY": "Not Accessible", "NIGHT_TUBE": "Yes", "NETWORK": "London Underground", "DATASET_LAST_UPDATED": "2021-11-29T00:00:00Z", "FULL_NAME": "White City station" }, "geometry": { "type": "Point", "coordinates": [ -0.224438284364719, 51.512216673623698, 0.0 ] } },
{ "type": "Feature", "properties": { "OBJECTID": 182, "NAME": "Shepherd's Bush", "LINES": "Central", "ATCOCODE": "940GZZLUSBC", "MODES": "tube", "ACCESSIBILITY": "Not Accessible", "NIGHT_TUBE": "Yes", "NETWORK": "London Underground", "DATASET_LAST_UPDATED": "2021-11-29T00:00:00Z", "FULL_NAME": "Shepherd's Bush station" }, "geometry": { "type": "Point", "coordinates": [ -0.218811085425774, 51.504354032089402, 0.0 ] } },
{ "type": "Feature", "properties": { "OBJECTID": 183, "NAME": "Holland Park", "LINES": "Central", "ATCOCODE": "940GZZLUHPK", "MODES": "bus, tube", "ACCESSIBILITY": "Not Accessible", "NIGHT_TUBE": "Yes", "NETWORK": "London Underground", "DATASET_LAST_UPDATED": "2021-11-29T00:00:00Z", "FULL_NAME": "Holland Park station" }, "geometry": { "type": "Point", "coordinates": [ -0.205636397539602, 51.507154912395201, 0.0 ] } },
{ "type": "Feature", "properties": { "OBJECTID": 184, "NAME": "Becontree", "LINES": "District", "ATCOCODE": "940GZZLUBEC", "MODES": "tube, bus", "ACCESSIBILITY": "Not Accessible", "NIGHT_TUBE": "No", "NETWORK": "London Underground", "DATASET_LAST_UPDATED": "2021-11-29T00:00:00Z", "FULL_NAME": "Becontree station" }, "geometry": { "type": "Point", "coordinates": [ 0.127369132999237, 51.5403456308199, 0.0 ] } },
{ "type": "Feature", "properties": { "OBJECTID": 185, "NAME": "Victoria", "LINES": "District, Circle, Victoria", "ATCOCODE": "940GZZLUVIC", "MODES": "tube", "ACCESSIBILITY": "Partially Accessible", "NIGHT_TUBE": "Yes", "NETWORK": "London Underground", "DATASET_LAST_UPDATED": "2021-11-29T00:00:00Z", "FULL_NAME": "Victoria station" }, "geometry": { "type": "Point", "coordinates": [ -0.14306445018881, 51.4964021600764, 0.0 ] } },
{ "type": "Feature", "properties": { "OBJECTID": 186, "NAME": "Brixton", "LINES": "Victoria", "ATCOCODE": "940GZZLUBXN", "MODES": "tube", "ACCESSIBILITY": "Fully Accessible", "NIGHT_TUBE": "Yes", "NETWORK": "London Underground", "DATASET_LAST_UPDATED": "2021-11-29T00:00:00Z", "FULL_NAME": "Brixton station" }, "geometry": { "type": "Point", "coordinates": [ -0.114869173557957, 51.4626677839642, 0.0 ] } },
{ "type": "Feature", "properties": { "OBJECTID": 187, "NAME": "Pimlico", "LINES": "Victoria", "ATCOCODE": "940GZZLUPCO", "MODES": "tube, bus", "ACCESSIBILITY": "Not Accessible", "NIGHT_TUBE": "Yes", "NETWORK": "London Underground", "DATASET_LAST_UPDATED": "2021-11-29T00:00:00Z", "FULL_NAME": "Pimlico station" }, "geometry": { "type": "Point", "coordinates": [ -0.133683792044099, 51.489083026301998, 0.0 ] } },
{ "type": "Feature", "properties": { "OBJECTID": 188, "NAME": "Vauxhall", "LINES": "Victoria", "ATCOCODE": "940GZZLUVXL", "MODES": "tube", "ACCESSIBILITY": "Not Accessible", "NIGHT_TUBE": "Yes", "NETWORK": "London Underground", "DATASET_LAST_UPDATED": "2021-11-29T00:00:00Z", "FULL_NAME": "Vauxhall station" }, "geometry": { "type": "Point", "coordinates": [ -0.124227036738512, 51.485698449390902, 0.0 ] } },
{ "type": "Feature", "properties": { "OBJECTID": 189, "NAME": "Warren Street", "LINES": "Northern, Victoria", "ATCOCODE": "940GZZLUWRR", "MODES": "tube, bus", "ACCESSIBILITY": "Not Accessible", "NIGHT_TUBE": "Yes", "NETWORK": "London Underground", "DATASET_LAST_UPDATED": "2021-11-29T00:00:00Z", "FULL_NAME": "Warren Street station" }, "geometry": { "type": "Point", "coordinates": [ -0.138316275529769, 51.5245289307367, 0.0 ] } },
{ "type": "Feature", "properties": { "OBJECTID": 190, "NAME": "Dagenham East", "LINES": "District", "ATCOCODE": "940GZZLUDGE", "MODES": "tube, bus", "ACCESSIBILITY": "Not Accessible", "NIGHT_TUBE": "No", "NETWORK": "London Underground", "DATASET_LAST_UPDATED": "2021-11-29T00:00:00Z", "FULL_NAME": "Dagenham East station" }, "geometry": { "type": "Point", "coordinates": [ 0.166003962649862, 51.544161770606699, 0.0 ] } },
{ "type": "Feature", "properties": { "OBJECTID": 191, "NAME": "Elm Park", "LINES": "District", "ATCOCODE": "940GZZLUEPK", "MODES": "bus, tube", "ACCESSIBILITY": "Fully Accessible", "NIGHT_TUBE": "No", "NETWORK": "London Underground", "DATASET_LAST_UPDATED": "2021-11-29T00:00:00Z", "FULL_NAME": "Elm Park station" }, "geometry": { "type": "Point", "coordinates": [ 0.198693956591701, 51.549721479820803, 0.0 ] } },
{ "type": "Feature", "properties": { "OBJECTID": 192, "NAME": "Hornchurch", "LINES": "District", "ATCOCODE": "940GZZLUHCH", "MODES": "tube, bus", "ACCESSIBILITY": "Not Accessible", "NIGHT_TUBE": "No", "NETWORK": "London Underground", "DATASET_LAST_UPDATED": "2021-11-29T00:00:00Z", "FULL_NAME": "Hornchurch station" }, "geometry": { "type": "Point", "coordinates": [ 0.219134036058355, 51.554050514607901, 0.0 ] } },
{ "type": "Feature", "properties": { "OBJECTID": 193, "NAME": "Upminster Bridge", "LINES": "District", "ATCOCODE": "940GZZLUUPB", "MODES": "tube, bus", "ACCESSIBILITY": "Not Accessible", "NIGHT_TUBE": "No", "NETWORK": "London Underground", "DATASET_LAST_UPDATED": "2021-11-29T00:00:00Z", "FULL_NAME": "Upminster Bridge station" }, "geometry": { "type": "Point", "coordinates": [ 0.235853851010437, 51.558497629018397, 0.0 ] } },
{ "type": "Feature", "properties": { "OBJECTID": 194, "NAME": "Shepherd's Bush Market", "LINES": "Hammersmith & City, Circle", "ATCOCODE": "940GZZLUSBM", "MODES": "tube", "ACCESSIBILITY": "Not Accessible", "NIGHT_TUBE": "No", "NETWORK": "London Underground", "DATASET_LAST_UPDATED": "2021-11-29T00:00:00Z", "FULL_NAME": "Shepherd's Bush Market station" }, "geometry": { "type": "Point", "coordinates": [ -0.226272239161867, 51.506091811563302, 0.0 ] } },
{ "type": "Feature", "properties": { "OBJECTID": 195, "NAME": "Goldhawk Road", "LINES": "Hammersmith & City, Circle", "ATCOCODE": "940GZZLUGHK", "MODES": "bus, tube", "ACCESSIBILITY": "Not Accessible", "NIGHT_TUBE": "No", "NETWORK": "London Underground", "DATASET_LAST_UPDATED": "2021-11-29T00:00:00Z", "FULL_NAME": "Goldhawk Road station" }, "geometry": { "type": "Point", "coordinates": [ -0.226621276502508, 51.501992974750998, 0.0 ] } },
{ "type": "Feature", "properties": { "OBJECTID": 196, "NAME": "Latimer Road", "LINES": "Hammersmith & City, Circle", "ATCOCODE": "940GZZLULRD", "MODES": "tube, bus", "ACCESSIBILITY": "Not Accessible", "NIGHT_TUBE": "No", "NETWORK": "London Underground", "DATASET_LAST_UPDATED": "2021-11-29T00:00:00Z", "FULL_NAME": "Latimer Road station" }, "geometry": { "type": "Point", "coordinates": [ -0.21782991407451, 51.513460126230299, 0.0 ] } },
{ "type": "Feature", "properties": { "OBJECTID": 197, "NAME": "Ladbroke Grove", "LINES": "Hammersmith & City, Circle", "ATCOCODE": "940GZZLULAD", "MODES": "bus, tube", "ACCESSIBILITY": "Not Accessible", "NIGHT_TUBE": "No", "NETWORK": "London Underground", "DATASET_LAST_UPDATED": "2021-11-29T00:00:00Z", "FULL_NAME": "Ladbroke Grove station" }, "geometry": { "type": "Point", "coordinates": [ -0.210877644206675, 51.517322093498002, 0.0 ] } },
{ "type": "Feature", "properties": { "OBJECTID": 198, "NAME": "Royal Oak", "LINES": "Hammersmith & City, Circle", "ATCOCODE": "940GZZLURYO", "MODES": "bus, tube", "ACCESSIBILITY": "Not Accessible", "NIGHT_TUBE": "No", "NETWORK": "London Underground", "DATASET_LAST_UPDATED": "2021-11-29T00:00:00Z", "FULL_NAME": "Royal Oak station" }, "geometry": { "type": "Point", "coordinates": [ -0.187761671856866, 51.519049749258798, 0.0 ] } },
{ "type": "Feature", "properties": { "OBJECTID": 199, "NAME": "Earl's Court", "LINES": "District, Piccadilly", "ATCOCODE": "940GZZLUECT", "MODES": "tube, bus", "ACCESSIBILITY": "Fully Accessible", "NIGHT_TUBE": "Yes", "NETWORK": "London Underground", "DATASET_LAST_UPDATED": "2021-11-29T00:00:00Z", "FULL_NAME": "Earl's Court station" }, "geometry": { "type": "Point", "coordinates": [ -0.193151477589029, 51.491985576823701, 0.0 ] } },
{ "type": "Feature", "properties": { "OBJECTID": 200, "NAME": "Queen's Park", "LINES": "Bakerloo", "ATCOCODE": "940GZZLUQPS", "MODES": "tube", "ACCESSIBILITY": "Partially Accessible - Interchange Only", "NIGHT_TUBE": "No", "NETWORK": "London Underground", "DATASET_LAST_UPDATED": "2021-11-29T00:00:00Z", "FULL_NAME": "Queen's Park station" }, "geometry": { "type": "Point", "coordinates": [ -0.205716929565442, 51.533980135144802, 0.0 ] } },
{ "type": "Feature", "properties": { "OBJECTID": 201, "NAME": "Notting Hill Gate", "LINES": "District, Central, Circle", "ATCOCODE": "940GZZLUNHG", "MODES": "bus, tube", "ACCESSIBILITY": "Not Accessible", "NIGHT_TUBE": "Yes", "NETWORK": "London Underground", "DATASET_LAST_UPDATED": "2021-11-29T00:00:00Z", "FULL_NAME": "Notting Hill Gate station" }, "geometry": { "type": "Point", "coordinates": [ -0.196065723250765, 51.509157406681197, 0.0 ] } },
{ "type": "Feature", "properties": { "OBJECTID": 202, "NAME": "Lancaster Gate", "LINES": "Central", "ATCOCODE": "940GZZLULGT", "MODES": "tube, bus", "ACCESSIBILITY": "Not Accessible", "NIGHT_TUBE": "Yes", "NETWORK": "London Underground", "DATASET_LAST_UPDATED": "2021-11-29T00:00:00Z", "FULL_NAME": "Lancaster Gate station" }, "geometry": { "type": "Point", "coordinates": [ -0.175420466686948, 51.511688670685203, 0.0 ] } },
{ "type": "Feature", "properties": { "OBJECTID": 203, "NAME": "Marble Arch", "LINES": "Central", "ATCOCODE": "940GZZLUMBA", "MODES": "tube, bus", "ACCESSIBILITY": "Not Accessible", "NIGHT_TUBE": "Yes", "NETWORK": "London Underground", "DATASET_LAST_UPDATED": "2021-11-29T00:00:00Z", "FULL_NAME": "Marble Arch station" }, "geometry": { "type": "Point", "coordinates": [ -0.157334022942238, 51.513601298245597, 0.0 ] } },
{ "type": "Feature", "properties": { "OBJECTID": 204, "NAME": "Bond Street", "LINES": "Central, Jubilee", "ATCOCODE": "940GZZLUBND", "MODES": "tube, bus", "ACCESSIBILITY": "Fully Accessible", "NIGHT_TUBE": "Yes", "NETWORK": "London Underground", "DATASET_LAST_UPDATED": "2021-11-29T00:00:00Z", "FULL_NAME": "Bond Street station" }, "geometry": { "type": "Point", "coordinates": [ -0.149656033847428, 51.514381142574997, 0.0 ] } },
{ "type": "Feature", "properties": { "OBJECTID": 205, "NAME": "Perivale", "LINES": "Central", "ATCOCODE": "940GZZLUPVL", "MODES": "bus, tube", "ACCESSIBILITY": "Not Accessible", "NIGHT_TUBE": "No", "NETWORK": "London Underground", "DATASET_LAST_UPDATED": "2021-11-29T00:00:00Z", "FULL_NAME": "Perivale station" }, "geometry": { "type": "Point", "coordinates": [ -0.323402230736006, 51.5367520396955, 0.0 ] } },
{ "type": "Feature", "properties": { "OBJECTID": 206, "NAME": "Greenford", "LINES": "Central", "ATCOCODE": "940GZZLUGFD", "MODES": "tube", "ACCESSIBILITY": "Partially Accessible - Interchange Only", "NIGHT_TUBE": "No", "NETWORK": "London Underground", "DATASET_LAST_UPDATED": "2021-11-29T00:00:00Z", "FULL_NAME": "Greenford station" }, "geometry": { "type": "Point", "coordinates": [ -0.346481627280673, 51.542592368015697, 0.0 ] } },
{ "type": "Feature", "properties": { "OBJECTID": 207, "NAME": "North Acton", "LINES": "Central", "ATCOCODE": "940GZZLUNAN", "MODES": "bus, tube", "ACCESSIBILITY": "Not Accessible", "NIGHT_TUBE": "No", "NETWORK": "London Underground", "DATASET_LAST_UPDATED": "2021-11-29T00:00:00Z", "FULL_NAME": "North Acton station" }, "geometry": { "type": "Point", "coordinates": [ -0.259736737285887, 51.523613209294403, 0.0 ] } },
{ "type": "Feature", "properties": { "OBJECTID": 208, "NAME": "Putney Bridge", "LINES": "District", "ATCOCODE": "940GZZLUPYB", "MODES": "tube, bus", "ACCESSIBILITY": "Not Accessible", "NIGHT_TUBE": "No", "NETWORK": "London Underground", "DATASET_LAST_UPDATED": "2021-11-29T00:00:00Z", "FULL_NAME": "Putney Bridge station" }, "geometry": { "type": "Point", "coordinates": [ -0.208703119435311, 51.468256004357499, 0.0 ] } },
{ "type": "Feature", "properties": { "OBJECTID": 209, "NAME": "Bank", "LINES": "Waterloo & City, Northern, Central", "ATCOCODE": "940GZZLUBNK", "MODES": "tube", "ACCESSIBILITY": "Not Accessible", "NIGHT_TUBE": "Yes", "NETWORK": "London Underground", "DATASET_LAST_UPDATED": "2021-11-29T00:00:00Z", "FULL_NAME": "Bank station" }, "geometry": { "type": "Point", "coordinates": [ -0.088882065096841, 51.513427026947902, 0.0 ] } },
{ "type": "Feature", "properties": { "OBJECTID": 210, "NAME": "Oxford Circus", "LINES": "Central, Bakerloo, Victoria", "ATCOCODE": "940GZZLUOXC", "MODES": "tube, bus", "ACCESSIBILITY": "Partially Accessible - Interchange Only", "NIGHT_TUBE": "Yes", "NETWORK": "London Underground", "DATASET_LAST_UPDATED": "2021-11-29T00:00:00Z", "FULL_NAME": "Oxford Circus station" }, "geometry": { "type": "Point", "coordinates": [ -0.141605199843146, 51.515321317610599, 0.0 ] } },
{ "type": "Feature", "properties": { "OBJECTID": 211, "NAME": "Holborn", "LINES": "Central, Piccadilly", "ATCOCODE": "940GZZLUHBN", "MODES": "tube, bus", "ACCESSIBILITY": "Not Accessible", "NIGHT_TUBE": "Yes", "NETWORK": "London Underground", "DATASET_LAST_UPDATED": "2021-11-29T00:00:00Z", "FULL_NAME": "Holborn station" }, "geometry": { "type": "Point", "coordinates": [ -0.120390788915067, 51.517579820069599, 0.0 ] } },
{ "type": "Feature", "properties": { "OBJECTID": 212, "NAME": "Chancery Lane", "LINES": "Central", "ATCOCODE": "940GZZLUCHL", "MODES": "tube, bus", "ACCESSIBILITY": "Not Accessible", "NIGHT_TUBE": "Yes", "NETWORK": "London Underground", "DATASET_LAST_UPDATED": "2021-11-29T00:00:00Z", "FULL_NAME": "Chancery Lane station" }, "geometry": { "type": "Point", "coordinates": [ -0.111543537681388, 51.5182506335764, 0.0 ] } },
{ "type": "Feature", "properties": { "OBJECTID": 213, "NAME": "Canada Water", "LINES": "Jubilee", "ATCOCODE": "940GZZLUCWR", "MODES": "tube", "ACCESSIBILITY": "Fully Accessible", "NIGHT_TUBE": "Yes", "NETWORK": "London Underground", "DATASET_LAST_UPDATED": "2021-11-29T00:00:00Z", "FULL_NAME": "Canada Water station" }, "geometry": { "type": "Point", "coordinates": [ -0.04996079141194, 51.497922014511602, 0.0 ] } },
{ "type": "Feature", "properties": { "OBJECTID": 214, "NAME": "Bermondsey", "LINES": "Jubilee", "ATCOCODE": "940GZZLUBMY", "MODES": "tube, bus", "ACCESSIBILITY": "Fully Accessible", "NIGHT_TUBE": "Yes", "NETWORK": "London Underground", "DATASET_LAST_UPDATED": "2021-11-29T00:00:00Z", "FULL_NAME": "Bermondsey station" }, "geometry": { "type": "Point", "coordinates": [ -0.064333036476377, 51.497703512063502, 0.0 ] } },
{ "type": "Feature", "properties": { "OBJECTID": 215, "NAME": "Canary Wharf", "LINES": "Jubilee", "ATCOCODE": "940GZZLUCYF", "MODES": "tube", "ACCESSIBILITY": "Fully Accessible", "NIGHT_TUBE": "Yes", "NETWORK": "London Underground", "DATASET_LAST_UPDATED": "2021-11-29T00:00:00Z", "FULL_NAME": "Canary Wharf station" }, "geometry": { "type": "Point", "coordinates": [ -0.017726664743273, 51.503431012704098, 0.0 ] } },
{ "type": "Feature", "properties": { "OBJECTID": 216, "NAME": "North Greenwich", "LINES": "Jubilee", "ATCOCODE": "940GZZLUNGW", "MODES": "tube", "ACCESSIBILITY": "Fully Accessible", "NIGHT_TUBE": "Yes", "NETWORK": "London Underground", "DATASET_LAST_UPDATED": "2021-11-29T00:00:00Z", "FULL_NAME": "North Greenwich station" }, "geometry": { "type": "Point", "coordinates": [ 0.004314429744857, 51.500534961134598, 0.0 ] } },
{ "type": "Feature", "properties": { "OBJECTID": 217, "NAME": "Canning Town", "LINES": "Jubilee", "ATCOCODE": "940GZZLUCGT", "MODES": "tube", "ACCESSIBILITY": "Fully Accessible", "NIGHT_TUBE": "No", "NETWORK": "London Underground", "DATASET_LAST_UPDATED": "2021-11-29T00:00:00Z", "FULL_NAME": "Canning Town station" }, "geometry": { "type": "Point", "coordinates": [ 0.007974158419873, 51.5141228765766, 0.0 ] } },
{ "type": "Feature", "properties": { "OBJECTID": 218, "NAME": "Kilburn", "LINES": "Jubilee", "ATCOCODE": "940GZZLUKBN", "MODES": "tube, bus", "ACCESSIBILITY": "Fully Accessible", "NIGHT_TUBE": "Yes", "NETWORK": "London Underground", "DATASET_LAST_UPDATED": "2021-11-29T00:00:00Z", "FULL_NAME": "Kilburn station" }, "geometry": { "type": "Point", "coordinates": [ -0.204689921720116, 51.546955239001797, 0.0 ] } },
{ "type": "Feature", "properties": { "OBJECTID": 219, "NAME": "West Hampstead", "LINES": "Jubilee", "ATCOCODE": "940GZZLUWHP", "MODES": "tube", "ACCESSIBILITY": "Not Accessible", "NIGHT_TUBE": "Yes", "NETWORK": "London Underground", "DATASET_LAST_UPDATED": "2021-11-29T00:00:00Z", "FULL_NAME": "West Hampstead station" }, "geometry": { "type": "Point", "coordinates": [ -0.190144437494366, 51.546804134291797, 0.0 ] } },
{ "type": "Feature", "properties": { "OBJECTID": 220, "NAME": "Swiss Cottage", "LINES": "Jubilee", "ATCOCODE": "940GZZLUSWC", "MODES": "bus, tube", "ACCESSIBILITY": "Not Accessible", "NIGHT_TUBE": "Yes", "NETWORK": "London Underground", "DATASET_LAST_UPDATED": "2021-11-29T00:00:00Z", "FULL_NAME": "Swiss Cottage station" }, "geometry": { "type": "Point", "coordinates": [ -0.174814497247458, 51.543707600813697, 0.0 ] } },
{ "type": "Feature", "properties": { "OBJECTID": 221, "NAME": "Finchley Road", "LINES": "Metropolitan, Jubilee", "ATCOCODE": "940GZZLUFYR", "MODES": "bus, tube", "ACCESSIBILITY": "Partially Accessible - Interchange Only", "NIGHT_TUBE": "Yes", "NETWORK": "London Underground", "DATASET_LAST_UPDATED": "2021-11-29T00:00:00Z", "FULL_NAME": "Finchley Road station" }, "geometry": { "type": "Point", "coordinates": [ -0.181066237852478, 51.547233075573303, 0.0 ] } },
{ "type": "Feature", "properties": { "OBJECTID": 222, "NAME": "Colliers Wood", "LINES": "Northern", "ATCOCODE": "940GZZLUCSD", "MODES": "bus, tube", "ACCESSIBILITY": "Not Accessible", "NIGHT_TUBE": "Yes", "NETWORK": "London Underground", "DATASET_LAST_UPDATED": "2021-11-29T00:00:00Z", "FULL_NAME": "Colliers Wood station" }, "geometry": { "type": "Point", "coordinates": [ -0.178032911097111, 51.4181591066557, 0.0 ] } },
{ "type": "Feature", "properties": { "OBJECTID": 223, "NAME": "Archway", "LINES": "Northern", "ATCOCODE": "940GZZLUACY", "MODES": "bus, tube", "ACCESSIBILITY": "Not Accessible", "NIGHT_TUBE": "Yes", "NETWORK": "London Underground", "DATASET_LAST_UPDATED": "2021-11-29T00:00:00Z", "FULL_NAME": "Archway station" }, "geometry": { "type": "Point", "coordinates": [ -0.135025978070087, 51.564540882623398, 0.0 ] } },
{ "type": "Feature", "properties": { "OBJECTID": 224, "NAME": "Tooting Broadway", "LINES": "Northern", "ATCOCODE": "940GZZLUTBY", "MODES": "tube, bus", "ACCESSIBILITY": "Not Accessible", "NIGHT_TUBE": "Yes", "NETWORK": "London Underground", "DATASET_LAST_UPDATED": "2021-11-29T00:00:00Z", "FULL_NAME": "Tooting Broadway station" }, "geometry": { "type": "Point", "coordinates": [ -0.16836453629052, 51.427675755180502, 0.0 ] } },
{ "type": "Feature", "properties": { "OBJECTID": 225, "NAME": "Tooting Bec", "LINES": "Northern", "ATCOCODE": "940GZZLUTBC", "MODES": "tube, bus", "ACCESSIBILITY": "Not Accessible", "NIGHT_TUBE": "Yes", "NETWORK": "London Underground", "DATASET_LAST_UPDATED": "2021-11-29T00:00:00Z", "FULL_NAME": "Tooting Bec station" }, "geometry": { "type": "Point", "coordinates": [ -0.15920812954631, 51.4358993700234, 0.0 ] } },
{ "type": "Feature", "properties": { "OBJECTID": 226, "NAME": "Clapham South", "LINES": "Northern", "ATCOCODE": "940GZZLUCPS", "MODES": "tube, bus", "ACCESSIBILITY": "Not Accessible", "NIGHT_TUBE": "Yes", "NETWORK": "London Underground", "DATASET_LAST_UPDATED": "2021-11-29T00:00:00Z", "FULL_NAME": "Clapham South station" }, "geometry": { "type": "Point", "coordinates": [ -0.147186832640558, 51.453237528586797, 0.0 ] } },
{ "type": "Feature", "properties": { "OBJECTID": 227, "NAME": "Clapham Common", "LINES": "Northern", "ATCOCODE": "940GZZLUCPC", "MODES": "tube, bus", "ACCESSIBILITY": "Not Accessible", "NIGHT_TUBE": "Yes", "NETWORK": "London Underground", "DATASET_LAST_UPDATED": "2021-11-29T00:00:00Z", "FULL_NAME": "Clapham Common station" }, "geometry": { "type": "Point", "coordinates": [ -0.137167009784716, 51.462211233552097, 0.0 ] } },
{ "type": "Feature", "properties": { "OBJECTID": 228, "NAME": "Clapham North", "LINES": "Northern", "ATCOCODE": "940GZZLUCPN", "MODES": "tube, bus", "ACCESSIBILITY": "Partially Accessible - Interchange Only", "NIGHT_TUBE": "Yes", "NETWORK": "London Underground", "DATASET_LAST_UPDATED": "2021-11-29T00:00:00Z", "FULL_NAME": "Clapham North station" }, "geometry": { "type": "Point", "coordinates": [ -0.129333403541793, 51.465730368079797, 0.0 ] } },
{ "type": "Feature", "properties": { "OBJECTID": 229, "NAME": "Goodge Street", "LINES": "Northern", "ATCOCODE": "940GZZLUGDG", "MODES": "tube, bus", "ACCESSIBILITY": "Not Accessible", "NIGHT_TUBE": "Yes", "NETWORK": "London Underground", "DATASET_LAST_UPDATED": "2021-11-29T00:00:00Z", "FULL_NAME": "Goodge Street station" }, "geometry": { "type": "Point", "coordinates": [ -0.134317418003295, 51.520603564610703, 0.0 ] } },
{ "type": "Feature", "properties": { "OBJECTID": 230, "NAME": "Tottenham Court Road", "LINES": "Central, Northern", "ATCOCODE": "940GZZLUTCR", "MODES": "bus, tube", "ACCESSIBILITY": "Fully Accessible", "NIGHT_TUBE": "Yes", "NETWORK": "London Underground", "DATASET_LAST_UPDATED": "2021-11-29T00:00:00Z", "FULL_NAME": "Tottenham Court Road station" }, "geometry": { "type": "Point", "coordinates": [ -0.130478416245152, 51.516458879984697, 0.0 ] } },
{ "type": "Feature", "properties": { "OBJECTID": 231, "NAME": "Hampstead", "LINES": "Northern", "ATCOCODE": "940GZZLUHTD", "MODES": "tube, bus", "ACCESSIBILITY": "Not Accessible", "NIGHT_TUBE": "Yes", "NETWORK": "London Underground", "DATASET_LAST_UPDATED": "2021-11-29T00:00:00Z", "FULL_NAME": "Hampstead station" }, "geometry": { "type": "Point", "coordinates": [ -0.178497747443859, 51.556592276538098, 0.0 ] } },
{ "type": "Feature", "properties": { "OBJECTID": 232, "NAME": "Mornington Crescent", "LINES": "Northern", "ATCOCODE": "940GZZLUMTC", "MODES": "bus, tube", "ACCESSIBILITY": "Not Accessible", "NIGHT_TUBE": "Yes", "NETWORK": "London Underground", "DATASET_LAST_UPDATED": "2021-11-29T00:00:00Z", "FULL_NAME": "Mornington Crescent station" }, "geometry": { "type": "Point", "coordinates": [ -0.1387241182319, 51.534707002698902, 0.0 ] } },
{ "type": "Feature", "properties": { "OBJECTID": 233, "NAME": "Chalk Farm", "LINES": "Northern", "ATCOCODE": "940GZZLUCFM", "MODES": "bus, tube", "ACCESSIBILITY": "Not Accessible", "NIGHT_TUBE": "Yes", "NETWORK": "London Underground", "DATASET_LAST_UPDATED": "2021-11-29T00:00:00Z", "FULL_NAME": "Chalk Farm station" }, "geometry": { "type": "Point", "coordinates": [ -0.152616492596534, 51.543860602094298, 0.0 ] } },
{ "type": "Feature", "properties": { "OBJECTID": 234, "NAME": "Kentish Town", "LINES": "Northern", "ATCOCODE": "940GZZLUKSH", "MODES": "tube", "ACCESSIBILITY": "Not Accessible", "NIGHT_TUBE": "No", "NETWORK": "London Underground", "DATASET_LAST_UPDATED": "2021-11-29T00:00:00Z", "FULL_NAME": "Kentish Town station" }, "geometry": { "type": "Point", "coordinates": [ -0.14072202813761, 51.550296331510097, 0.0 ] } },
{ "type": "Feature", "properties": { "OBJECTID": 235, "NAME": "Tufnell Park", "LINES": "Northern", "ATCOCODE": "940GZZLUTFP", "MODES": "bus, tube", "ACCESSIBILITY": "Not Accessible", "NIGHT_TUBE": "Yes", "NETWORK": "London Underground", "DATASET_LAST_UPDATED": "2021-11-29T00:00:00Z", "FULL_NAME": "Tufnell Park station" }, "geometry": { "type": "Point", "coordinates": [ -0.13843964784622, 51.556846906210097, 0.0 ] } },
{ "type": "Feature", "properties": { "OBJECTID": 236, "NAME": "Oval", "LINES": "Northern", "ATCOCODE": "940GZZLUOVL", "MODES": "bus, tube", "ACCESSIBILITY": "Not Accessible", "NIGHT_TUBE": "Yes", "NETWORK": "London Underground", "DATASET_LAST_UPDATED": "2021-11-29T00:00:00Z", "FULL_NAME": "Oval station" }, "geometry": { "type": "Point", "coordinates": [ -0.112380891880082, 51.481838428835502, 0.0 ] } },
{ "type": "Feature", "properties": { "OBJECTID": 237, "NAME": "Kennington", "LINES": "Northern", "ATCOCODE": "940GZZLUKNG", "MODES": "tube, bus", "ACCESSIBILITY": "Partially Accessible - Interchange Only", "NIGHT_TUBE": "Yes", "NETWORK": "London Underground", "DATASET_LAST_UPDATED": "2021-11-29T00:00:00Z", "FULL_NAME": "Kennington station" }, "geometry": { "type": "Point", "coordinates": [ -0.105940029542131, 51.488341112166999, 0.0 ] } },
{ "type": "Feature", "properties": { "OBJECTID": 238, "NAME": "East Acton", "LINES": "Central", "ATCOCODE": "940GZZLUEAN", "MODES": "bus, tube", "ACCESSIBILITY": "Not Accessible", "NIGHT_TUBE": "Yes", "NETWORK": "London Underground", "DATASET_LAST_UPDATED": "2021-11-29T00:00:00Z", "FULL_NAME": "East Acton station" }, "geometry": { "type": "Point", "coordinates": [ -0.247139059644396, 51.516598829019998, 0.0 ] } },
{ "type": "Feature", "properties": { "OBJECTID": 239, "NAME": "Chalfont & Latimer", "LINES": "Metropolitan", "ATCOCODE": "940GZZLUCAL", "MODES": "tube", "ACCESSIBILITY": "Fully Accessible", "NIGHT_TUBE": "No", "NETWORK": "London Underground", "DATASET_LAST_UPDATED": "2021-11-29T00:00:00Z", "FULL_NAME": "Chalfont & Latimer station" }, "geometry": { "type": "Point", "coordinates": [ -0.560701231920061, 51.668035476674298, 0.0 ] } },
{ "type": "Feature", "properties": { "OBJECTID": 240, "NAME": "Chorleywood", "LINES": "Metropolitan", "ATCOCODE": "940GZZLUCYD", "MODES": "tube", "ACCESSIBILITY": "Fully Accessible", "NIGHT_TUBE": "No", "NETWORK": "London Underground", "DATASET_LAST_UPDATED": "2021-11-29T00:00:00Z", "FULL_NAME": "Chorleywood station" }, "geometry": { "type": "Point", "coordinates": [ -0.518531312608756, 51.654297659682904, 0.0 ] } },
{ "type": "Feature", "properties": { "OBJECTID": 241, "NAME": "Wood Lane", "LINES": "Hammersmith & City, Circle", "ATCOCODE": "940GZZLUWLA", "MODES": "tube", "ACCESSIBILITY": "Fully Accessible", "NIGHT_TUBE": "No", "NETWORK": "London Underground", "DATASET_LAST_UPDATED": "2021-11-29T00:00:00Z", "FULL_NAME": "Wood Lane station" }, "geometry": { "type": "Point", "coordinates": [ -0.223566003960841, 51.510142009500797, 0.0 ] } },
{ "type": "Feature", "properties": { "OBJECTID": 242, "NAME": "Highbury & Islington", "LINES": "Victoria", "ATCOCODE": "940GZZLUHAI", "MODES": "tube", "ACCESSIBILITY": "Partially Accessible", "NIGHT_TUBE": "Yes", "NETWORK": "London Underground", "DATASET_LAST_UPDATED": "2021-11-29T00:00:00Z", "FULL_NAME": "Highbury & Islington station" }, "geometry": { "type": "Point", "coordinates": [ -0.103710311810678, 51.547426643679003, 0.0 ] } },
{ "type": "Feature", "properties": { "OBJECTID": 243, "NAME": "Blackhorse Road", "LINES": "Victoria", "ATCOCODE": "940GZZLUBLR", "MODES": "tube", "ACCESSIBILITY": "Not Accessible", "NIGHT_TUBE": "Yes", "NETWORK": "London Underground", "DATASET_LAST_UPDATED": "2021-11-29T00:00:00Z", "FULL_NAME": "Blackhorse Road station" }, "geometry": { "type": "Point", "coordinates": [ -0.041767975411359, 51.586842316344701, 0.0 ] } },
{ "type": "Feature", "properties": { "OBJECTID": 244, "NAME": "Tottenham Hale", "LINES": "Victoria", "ATCOCODE": "940GZZLUTMH", "MODES": "tube", "ACCESSIBILITY": "Fully Accessible", "NIGHT_TUBE": "Yes", "NETWORK": "London Underground", "DATASET_LAST_UPDATED": "2021-11-29T00:00:00Z", "FULL_NAME": "Tottenham Hale station" }, "geometry": { "type": "Point", "coordinates": [ -0.060139414171698, 51.588050475968899, 0.0 ] } },
{ "type": "Feature", "properties": { "OBJECTID": 245, "NAME": "Queensway", "LINES": "Central", "ATCOCODE": "940GZZLUQWY", "MODES": "bus, tube", "ACCESSIBILITY": "Not Accessible", "NIGHT_TUBE": "Yes", "NETWORK": "London Underground", "DATASET_LAST_UPDATED": "2021-11-29T00:00:00Z", "FULL_NAME": "Queensway station" }, "geometry": { "type": "Point", "coordinates": [ -0.187113881705539, 51.510253605237899, 0.0 ] } },
{ "type": "Feature", "properties": { "OBJECTID": 246, "NAME": "Buckhurst Hill", "LINES": "Central", "ATCOCODE": "940GZZLUBKH", "MODES": "tube, bus", "ACCESSIBILITY": "Not Accessible", "NIGHT_TUBE": "Yes", "NETWORK": "London Underground", "DATASET_LAST_UPDATED": "2021-11-29T00:00:00Z", "FULL_NAME": "Buckhurst Hill station" }, "geometry": { "type": "Point", "coordinates": [ 0.046850474676384, 51.625984536128499, 0.0 ] } },
{ "type": "Feature", "properties": { "OBJECTID": 247, "NAME": "Loughton", "LINES": "Central", "ATCOCODE": "940GZZLULGN", "MODES": "tube, bus", "ACCESSIBILITY": "Not Accessible", "NIGHT_TUBE": "Yes", "NETWORK": "London Underground", "DATASET_LAST_UPDATED": "2021-11-29T00:00:00Z", "FULL_NAME": "Loughton station" }, "geometry": { "type": "Point", "coordinates": [ 0.055364592448419, 51.641314039880498, 0.0 ] } },
{ "type": "Feature", "properties": { "OBJECTID": 248, "NAME": "Hainault", "LINES": "Central", "ATCOCODE": "940GZZLUHLT", "MODES": "tube, bus", "ACCESSIBILITY": "Fully Accessible", "NIGHT_TUBE": "Yes", "NETWORK": "London Underground", "DATASET_LAST_UPDATED": "2021-11-29T00:00:00Z", "FULL_NAME": "Hainault station" }, "geometry": { "type": "Point", "coordinates": [ 0.093535046767054, 51.603641740942699, 0.0 ] } },
{ "type": "Feature", "properties": { "OBJECTID": 249, "NAME": "Grange Hill", "LINES": "Central", "ATCOCODE": "940GZZLUGGH", "MODES": "tube, bus", "ACCESSIBILITY": "Not Accessible", "NIGHT_TUBE": "No", "NETWORK": "London Underground", "DATASET_LAST_UPDATED": "2021-11-29T00:00:00Z", "FULL_NAME": "Grange Hill station" }, "geometry": { "type": "Point", "coordinates": [ 0.092348743953445, 51.613199864993099, 0.0 ] } },
{ "type": "Feature", "properties": { "OBJECTID": 250, "NAME": "Debden", "LINES": "Central", "ATCOCODE": "940GZZLUDBN", "MODES": "tube", "ACCESSIBILITY": "Partially Accessible", "NIGHT_TUBE": "No", "NETWORK": "London Underground", "DATASET_LAST_UPDATED": "2021-11-29T00:00:00Z", "FULL_NAME": "Debden station" }, "geometry": { "type": "Point", "coordinates": [ 0.083793529867595, 51.645394091676998, 0.0 ] } },
{ "type": "Feature", "properties": { "OBJECTID": 251, "NAME": "Epping", "LINES": "Central", "ATCOCODE": "940GZZLUEPG", "MODES": "tube", "ACCESSIBILITY": "Fully Accessible", "NIGHT_TUBE": "No", "NETWORK": "London Underground", "DATASET_LAST_UPDATED": "2021-11-29T00:00:00Z", "FULL_NAME": "Epping station" }, "geometry": { "type": "Point", "coordinates": [ 0.114025844922751, 51.693565206495201, 0.0 ] } },
{ "type": "Feature", "properties": { "OBJECTID": 252, "NAME": "Redbridge", "LINES": "Central", "ATCOCODE": "940GZZLURBG", "MODES": "bus, tube", "ACCESSIBILITY": "Not Accessible", "NIGHT_TUBE": "Yes", "NETWORK": "London Underground", "DATASET_LAST_UPDATED": "2021-11-29T00:00:00Z", "FULL_NAME": "Redbridge station" }, "geometry": { "type": "Point", "coordinates": [ 0.045436837333952, 51.576251036716698, 0.0 ] } },
{ "type": "Feature", "properties": { "OBJECTID": 253, "NAME": "Dollis Hill", "LINES": "Jubilee", "ATCOCODE": "940GZZLUDOH", "MODES": "bus, tube", "ACCESSIBILITY": "Not Accessible", "NIGHT_TUBE": "Yes", "NETWORK": "London Underground", "DATASET_LAST_UPDATED": "2021-11-29T00:00:00Z", "FULL_NAME": "Dollis Hill station" }, "geometry": { "type": "Point", "coordinates": [ -0.239016205755934, 51.551964217854298, 0.0 ] } },
{ "type": "Feature", "properties": { "OBJECTID": 254, "NAME": "Kingsbury", "LINES": "Jubilee", "ATCOCODE": "940GZZLUKBY", "MODES": "tube, bus", "ACCESSIBILITY": "Fully Accessible", "NIGHT_TUBE": "Yes", "NETWORK": "London Underground", "DATASET_LAST_UPDATED": "2021-11-29T00:00:00Z", "FULL_NAME": "Kingsbury station" }, "geometry": { "type": "Point", "coordinates": [ -0.278620804099266, 51.584643276262803, 0.0 ] } },
{ "type": "Feature", "properties": { "OBJECTID": 255, "NAME": "Queensbury", "LINES": "Jubilee", "ATCOCODE": "940GZZLUQBY", "MODES": "bus, tube", "ACCESSIBILITY": "Not Accessible", "NIGHT_TUBE": "Yes", "NETWORK": "London Underground", "DATASET_LAST_UPDATED": "2021-11-29T00:00:00Z", "FULL_NAME": "Queensbury station" }, "geometry": { "type": "Point", "coordinates": [ -0.286198003128832, 51.5941996009634, 0.0 ] } },
{ "type": "Feature", "properties": { "OBJECTID": 256, "NAME": "South Kenton", "LINES": "Bakerloo", "ATCOCODE": "940GZZLUSKT", "MODES": "tube", "ACCESSIBILITY": "Not Accessible", "NIGHT_TUBE": "No", "NETWORK": "London Underground", "DATASET_LAST_UPDATED": "2021-11-29T00:00:00Z", "FULL_NAME": "South Kenton station" }, "geometry": { "type": "Point", "coordinates": [ -0.308350944844092, 51.570214981947302, 0.0 ] } },
{ "type": "Feature", "properties": { "OBJECTID": 257, "NAME": "Harrow & Wealdstone", "LINES": "Bakerloo", "ATCOCODE": "940GZZLUHAW", "MODES": "tube", "ACCESSIBILITY": "Fully Accessible", "NIGHT_TUBE": "No", "NETWORK": "London Underground", "DATASET_LAST_UPDATED": "2021-11-29T00:00:00Z", "FULL_NAME": "Harrow & Wealdstone station" }, "geometry": { "type": "Point", "coordinates": [ -0.334863781389938, 51.592045931048297, 0.0 ] } },
{ "type": "Feature", "properties": { "OBJECTID": 258, "NAME": "Stonebridge Park", "LINES": "Bakerloo", "ATCOCODE": "940GZZLUSGP", "MODES": "tube", "ACCESSIBILITY": "Not Accessible", "NIGHT_TUBE": "No", "NETWORK": "London Underground", "DATASET_LAST_UPDATED": "2021-11-29T00:00:00Z", "FULL_NAME": "Stonebridge Park station" }, "geometry": { "type": "Point", "coordinates": [ -0.276443341234838, 51.544194367455802, 0.0 ] } },
{ "type": "Feature", "properties": { "OBJECTID": 259, "NAME": "Embankment", "LINES": "District, Bakerloo, Northern, Circle", "ATCOCODE": "940GZZLUEMB", "MODES": "tube", "ACCESSIBILITY": "Not Accessible", "NIGHT_TUBE": "Yes", "NETWORK": "London Underground", "DATASET_LAST_UPDATED": "2021-11-29T00:00:00Z", "FULL_NAME": "Embankment station" }, "geometry": { "type": "Point", "coordinates": [ -0.122144131709805, 51.507453298942302, 0.0 ] } },
{ "type": "Feature", "properties": { "OBJECTID": 260, "NAME": "South Harrow", "LINES": "Piccadilly", "ATCOCODE": "940GZZLUSHH", "MODES": "tube, bus", "ACCESSIBILITY": "Not Accessible", "NIGHT_TUBE": "No", "NETWORK": "London Underground", "DATASET_LAST_UPDATED": "2021-11-29T00:00:00Z", "FULL_NAME": "South Harrow station" }, "geometry": { "type": "Point", "coordinates": [ -0.352071047655855, 51.564550941317499, 0.0 ] } },
{ "type": "Feature", "properties": { "OBJECTID": 261, "NAME": "Kensal Green", "LINES": "Bakerloo", "ATCOCODE": "940GZZLUKSL", "MODES": "tube", "ACCESSIBILITY": "Not Accessible", "NIGHT_TUBE": "No", "NETWORK": "London Underground", "DATASET_LAST_UPDATED": "2021-11-29T00:00:00Z", "FULL_NAME": "Kensal Green station" }, "geometry": { "type": "Point", "coordinates": [ -0.224454457556846, 51.530573605416102, 0.0 ] } },
{ "type": "Feature", "properties": { "OBJECTID": 262, "NAME": "Harlesden", "LINES": "Bakerloo", "ATCOCODE": "940GZZLUHSN", "MODES": "tube", "ACCESSIBILITY": "Not Accessible", "NIGHT_TUBE": "No", "NETWORK": "London Underground", "DATASET_LAST_UPDATED": "2021-11-29T00:00:00Z", "FULL_NAME": "Harlesden station" }, "geometry": { "type": "Point", "coordinates": [ -0.258566531371696, 51.536700210928501, 0.0 ] } },
{ "type": "Feature", "properties": { "OBJECTID": 263, "NAME": "Wembley Central", "LINES": "Bakerloo", "ATCOCODE": "940GZZLUWYC", "MODES": "tube", "ACCESSIBILITY": "Fully Accessible", "NIGHT_TUBE": "No", "NETWORK": "London Underground", "DATASET_LAST_UPDATED": "2021-11-29T00:00:00Z", "FULL_NAME": "Wembley Central station" }, "geometry": { "type": "Point", "coordinates": [ -0.29680323156636, 51.552283329103297, 0.0 ] } },
{ "type": "Feature", "properties": { "OBJECTID": 264, "NAME": "North Wembley", "LINES": "Bakerloo", "ATCOCODE": "940GZZLUNWY", "MODES": "tube", "ACCESSIBILITY": "Not Accessible", "NIGHT_TUBE": "No", "NETWORK": "London Underground", "DATASET_LAST_UPDATED": "2021-11-29T00:00:00Z", "FULL_NAME": "North Wembley station" }, "geometry": { "type": "Point", "coordinates": [ -0.303859909432008, 51.562395726373701, 0.0 ] } },
{ "type": "Feature", "properties": { "OBJECTID": 265, "NAME": "Paddington (H&C Line)", "LINES": "Hammersmith & City", "ATCOCODE": "940GZZLUPAH", "MODES": "tube", "ACCESSIBILITY": "Partially Accessible", "NIGHT_TUBE": "No", "NETWORK": "London Underground", "DATASET_LAST_UPDATED": "2021-11-29T00:00:00Z", "FULL_NAME": "Paddington (H&C Line) station" }, "geometry": { "type": "Point", "coordinates": [ -0.178772530509927, 51.518514894087197, 0.0 ] } },
{ "type": "Feature", "properties": { "OBJECTID": 266, "NAME": "Kew Gardens", "LINES": "District", "ATCOCODE": "940GZZLUKWG", "MODES": "tube", "ACCESSIBILITY": "Fully Accessible", "NIGHT_TUBE": "No", "NETWORK": "London Underground", "DATASET_LAST_UPDATED": "2021-11-29T00:00:00Z", "FULL_NAME": "Kew Gardens station" }, "geometry": { "type": "Point", "coordinates": [ -0.285018368341176, 51.4769978542773, 0.0 ] } },
{ "type": "Feature", "properties": { "OBJECTID": 267, "NAME": "Gunnersbury", "LINES": "District", "ATCOCODE": "940GZZLUGBY", "MODES": "tube", "ACCESSIBILITY": "Partially Accessible - Interchange Only", "NIGHT_TUBE": "No", "NETWORK": "London Underground", "DATASET_LAST_UPDATED": "2021-11-29T00:00:00Z", "FULL_NAME": "Gunnersbury station" }, "geometry": { "type": "Point", "coordinates": [ -0.275113608793886, 51.491742613263099, 0.0 ] } },
{ "type": "Feature", "properties": { "OBJECTID": 268, "NAME": "Piccadilly Circus", "LINES": "Bakerloo, Piccadilly", "ATCOCODE": "940GZZLUPCC", "MODES": "bus, tube", "ACCESSIBILITY": "Not Accessible", "NIGHT_TUBE": "Yes", "NETWORK": "London Underground", "DATASET_LAST_UPDATED": "2021-11-29T00:00:00Z", "FULL_NAME": "Piccadilly Circus station" }, "geometry": { "type": "Point", "coordinates": [ -0.133662111522037, 51.510062098663298, 0.0 ] } },
{ "type": "Feature", "properties": { "OBJECTID": 269, "NAME": "Charing Cross", "LINES": "Bakerloo, Northern", "ATCOCODE": "940GZZLUCHX", "MODES": "tube", "ACCESSIBILITY": "Fully Accessible", "NIGHT_TUBE": "Yes", "NETWORK": "London Underground", "DATASET_LAST_UPDATED": "2021-11-29T00:00:00Z", "FULL_NAME": "Charing Cross station" }, "geometry": { "type": "Point", "coordinates": [ -0.127358365578834, 51.5073793841553, 0.0 ] } },
{ "type": "Feature", "properties": { "OBJECTID": 270, "NAME": "Elephant & Castle", "LINES": "Northern, Bakerloo", "ATCOCODE": "940GZZLUEAC", "MODES": "tube", "ACCESSIBILITY": "Partially Accessible", "NIGHT_TUBE": "No", "NETWORK": "London Underground", "DATASET_LAST_UPDATED": "2021-11-29T00:00:00Z", "FULL_NAME": "Elephant & Castle station" }, "geometry": { "type": "Point", "coordinates": [ -0.101160770427679, 51.495838691742598, 0.0 ] } },
{ "type": "Feature", "properties": { "OBJECTID": 271, "NAME": "Lambeth North", "LINES": "Bakerloo", "ATCOCODE": "940GZZLULBN", "MODES": "bus, tube", "ACCESSIBILITY": "Not Accessible", "NIGHT_TUBE": "No", "NETWORK": "London Underground", "DATASET_LAST_UPDATED": "2021-11-29T00:00:00Z", "FULL_NAME": "Lambeth North station" }, "geometry": { "type": "Point", "coordinates": [ -0.112207385371564, 51.498843497400898, 0.0 ] } },
{ "type": "Feature", "properties": { "OBJECTID": 272, "NAME": "Edgware Road (Bakerloo)", "LINES": "Bakerloo", "ATCOCODE": "940GZZLUERB", "MODES": "tube, bus", "ACCESSIBILITY": "Not Accessible", "NIGHT_TUBE": "No", "NETWORK": "London Underground", "DATASET_LAST_UPDATED": "2021-11-29T00:00:00Z", "FULL_NAME": "Edgware Road (Bakerloo) station" }, "geometry": { "type": "Point", "coordinates": [ -0.170223205438699, 51.520470873302799, 0.0 ] } },
{ "type": "Feature", "properties": { "OBJECTID": 273, "NAME": "Maida Vale", "LINES": "Bakerloo", "ATCOCODE": "940GZZLUMVL", "MODES": "tube", "ACCESSIBILITY": "Not Accessible", "NIGHT_TUBE": "No", "NETWORK": "London Underground", "DATASET_LAST_UPDATED": "2021-11-29T00:00:00Z", "FULL_NAME": "Maida Vale station" }, "geometry": { "type": "Point", "coordinates": [ -0.185804459598915, 51.529730938714799, 0.0 ] } },
{ "type": "Feature", "properties": { "OBJECTID": 274, "NAME": "Kilburn Park", "LINES": "Bakerloo", "ATCOCODE": "940GZZLUKPK", "MODES": "tube, bus", "ACCESSIBILITY": "Not Accessible", "NIGHT_TUBE": "No", "NETWORK": "London Underground", "DATASET_LAST_UPDATED": "2021-11-29T00:00:00Z", "FULL_NAME": "Kilburn Park station" }, "geometry": { "type": "Point", "coordinates": [ -0.193995458251398, 51.5349495027193, 0.0 ] } },
{ "type": "Feature", "properties": { "OBJECTID": 275, "NAME": "Marylebone", "LINES": "Bakerloo", "ATCOCODE": "940GZZLUMYB", "MODES": "tube", "ACCESSIBILITY": "Not Accessible", "NIGHT_TUBE": "No", "NETWORK": "London Underground", "DATASET_LAST_UPDATED": "2021-11-29T00:00:00Z", "FULL_NAME": "Marylebone station" }, "geometry": { "type": "Point", "coordinates": [ -0.164215220446776, 51.522160622720101, 0.0 ] } },
{ "type": "Feature", "properties": { "OBJECTID": 276, "NAME": "Regent's Park", "LINES": "Bakerloo", "ATCOCODE": "940GZZLURGP", "MODES": "tube, bus", "ACCESSIBILITY": "Not Accessible", "NIGHT_TUBE": "No", "NETWORK": "London Underground", "DATASET_LAST_UPDATED": "2021-11-29T00:00:00Z", "FULL_NAME": "Regent's Park station" }, "geometry": { "type": "Point", "coordinates": [ -0.146287770475268, 51.523280148878698, 0.0 ] } },
{ "type": "Feature", "properties": { "OBJECTID": 277, "NAME": "Sloane Square", "LINES": "District, Circle", "ATCOCODE": "940GZZLUSSQ", "MODES": "bus, tube", "ACCESSIBILITY": "Not Accessible", "NIGHT_TUBE": "No", "NETWORK": "London Underground", "DATASET_LAST_UPDATED": "2021-11-29T00:00:00Z", "FULL_NAME": "Sloane Square station" }, "geometry": { "type": "Point", "coordinates": [ -0.156310789558297, 51.4923380170884, 0.0 ] } },
{ "type": "Feature", "properties": { "OBJECTID": 278, "NAME": "Ravenscourt Park", "LINES": "District", "ATCOCODE": "940GZZLURVP", "MODES": "bus, tube", "ACCESSIBILITY": "Not Accessible", "NIGHT_TUBE": "No", "NETWORK": "London Underground", "DATASET_LAST_UPDATED": "2021-11-29T00:00:00Z", "FULL_NAME": "Ravenscourt Park station" }, "geometry": { "type": "Point", "coordinates": [ -0.235752094598315, 51.494168715359201, 0.0 ] } },
{ "type": "Feature", "properties": { "OBJECTID": 279, "NAME": "Hammersmith (Dist&Picc Line)", "LINES": "District, Piccadilly", "ATCOCODE": "940GZZLUHSD", "MODES": "tube", "ACCESSIBILITY": "Fully Accessible", "NIGHT_TUBE": "Yes", "NETWORK": "London Underground", "DATASET_LAST_UPDATED": "2021-11-29T00:00:00Z", "FULL_NAME": "Hammersmith (Dist&Picc Line) station" }, "geometry": { "type": "Point", "coordinates": [ -0.223018446935571, 51.4920004980521, 0.0 ] } },
{ "type": "Feature", "properties": { "OBJECTID": 280, "NAME": "Belsize Park", "LINES": "Northern", "ATCOCODE": "940GZZLUBZP", "MODES": "bus, tube", "ACCESSIBILITY": "Not Accessible", "NIGHT_TUBE": "Yes", "NETWORK": "London Underground", "DATASET_LAST_UPDATED": "2021-11-29T00:00:00Z", "FULL_NAME": "Belsize Park station" }, "geometry": { "type": "Point", "coordinates": [ -0.164595401481609, 51.550328049110803, 0.0 ] } },
{ "type": "Feature", "properties": { "OBJECTID": 281, "NAME": "Wood Green", "LINES": "Piccadilly", "ATCOCODE": "940GZZLUWOG", "MODES": "tube, bus", "ACCESSIBILITY": "Not Accessible", "NIGHT_TUBE": "Yes", "NETWORK": "London Underground", "DATASET_LAST_UPDATED": "2021-11-29T00:00:00Z", "FULL_NAME": "Wood Green station" }, "geometry": { "type": "Point", "coordinates": [ -0.109833682268479, 51.5974740526689, 0.0 ] } },
{ "type": "Feature", "properties": { "OBJECTID": 282, "NAME": "Bounds Green", "LINES": "Piccadilly", "ATCOCODE": "940GZZLUBDS", "MODES": "tube, bus", "ACCESSIBILITY": "Not Accessible", "NIGHT_TUBE": "Yes", "NETWORK": "London Underground", "DATASET_LAST_UPDATED": "2021-11-29T00:00:00Z", "FULL_NAME": "Bounds Green station" }, "geometry": { "type": "Point", "coordinates": [ -0.124316721796801, 51.607066509103603, 0.0 ] } },
{ "type": "Feature", "properties": { "OBJECTID": 283, "NAME": "Westminster", "LINES": "District, Circle, Jubilee", "ATCOCODE": "940GZZLUWSM", "MODES": "tube", "ACCESSIBILITY": "Fully Accessible", "NIGHT_TUBE": "Yes", "NETWORK": "London Underground", "DATASET_LAST_UPDATED": "2021-11-29T00:00:00Z", "FULL_NAME": "Westminster station" }, "geometry": { "type": "Point", "coordinates": [ -0.125633447749655, 51.500965591158803, 0.0 ] } },
{ "type": "Feature", "properties": { "OBJECTID": 284, "NAME": "Kensington (Olympia)", "LINES": "District", "ATCOCODE": "940GZZLUKOY", "MODES": "tube", "ACCESSIBILITY": "Fully Accessible", "NIGHT_TUBE": "No", "NETWORK": "London Underground", "DATASET_LAST_UPDATED": "2021-11-29T00:00:00Z", "FULL_NAME": "Kensington (Olympia) station" }, "geometry": { "type": "Point", "coordinates": [ -0.210106190562842, 51.4977366172402, 0.0 ] } },
{ "type": "Feature", "properties": { "OBJECTID": 285, "NAME": "Euston", "LINES": "Northern, Victoria", "ATCOCODE": "940GZZLUEUS", "MODES": "tube", "ACCESSIBILITY": "Partially Accessible", "NIGHT_TUBE": "Yes", "NETWORK": "London Underground", "DATASET_LAST_UPDATED": "2021-11-29T00:00:00Z", "FULL_NAME": "Euston station" }, "geometry": { "type": "Point", "coordinates": [ -0.134572986979356, 51.528086488029203, 0.0 ] } },
{ "type": "Feature", "properties": { "OBJECTID": 286, "NAME": "Waterloo", "LINES": "Waterloo & City, Bakerloo, Northern, Jubilee", "ATCOCODE": "940GZZLUWLO", "MODES": "tube", "ACCESSIBILITY": "Partially Accessible", "NIGHT_TUBE": "Yes", "NETWORK": "London Underground", "DATASET_LAST_UPDATED": "2021-11-29T00:00:00Z", "FULL_NAME": "Waterloo station" }, "geometry": { "type": "Point", "coordinates": [ -0.114401197448965, 51.503426622799601, 0.0 ] } },
{ "type": "Feature", "properties": { "OBJECTID": 287, "NAME": "Upminster", "LINES": "District", "ATCOCODE": "940GZZLUUPM", "MODES": "tube", "ACCESSIBILITY": "Fully Accessible", "NIGHT_TUBE": "No", "NETWORK": "London Underground", "DATASET_LAST_UPDATED": "2021-11-29T00:00:00Z", "FULL_NAME": "Upminster station" }, "geometry": { "type": "Point", "coordinates": [ 0.251143119887474, 51.559089312980703, 0.0 ] } },
{ "type": "Feature", "properties": { "OBJECTID": 288, "NAME": "West Ham", "LINES": "District, Hammersmith & City, Jubilee", "ATCOCODE": "940GZZLUWHM", "MODES": "tube", "ACCESSIBILITY": "Fully Accessible", "NIGHT_TUBE": "Yes", "NETWORK": "London Underground", "DATASET_LAST_UPDATED": "2021-11-29T00:00:00Z", "FULL_NAME": "West Ham station" }, "geometry": { "type": "Point", "coordinates": [ 0.004310365571871, 51.5282808249125, 0.0 ] } },
{ "type": "Feature", "properties": { "OBJECTID": 289, "NAME": "Walthamstow Central", "LINES": "Victoria", "ATCOCODE": "940GZZLUWWL", "MODES": "tube", "ACCESSIBILITY": "Not Accessible", "NIGHT_TUBE": "Yes", "NETWORK": "London Underground", "DATASET_LAST_UPDATED": "2021-11-29T00:00:00Z", "FULL_NAME": "Walthamstow Central station" }, "geometry": { "type": "Point", "coordinates": [ -0.021489893196447, 51.583121495480697, 0.0 ] } },
{ "type": "Feature", "properties": { "OBJECTID": 290, "NAME": "Ealing Broadway", "LINES": "District, Central", "ATCOCODE": "940GZZLUEBY", "MODES": "tube", "ACCESSIBILITY": "Partially Accessible - Interchange Only", "NIGHT_TUBE": "Yes", "NETWORK": "London Underground", "DATASET_LAST_UPDATED": "2021-11-29T00:00:00Z", "FULL_NAME": "Ealing Broadway station" }, "geometry": { "type": "Point", "coordinates": [ -0.300982951016848, 51.515005532192397, 0.0 ] } },
{ "type": "Feature", "properties": { "OBJECTID": 291, "NAME": "Acton Town", "LINES": "District, Piccadilly", "ATCOCODE": "940GZZLUACT", "MODES": "bus, tube", "ACCESSIBILITY": "Fully Accessible", "NIGHT_TUBE": "Yes", "NETWORK": "London Underground", "DATASET_LAST_UPDATED": "2021-11-29T00:00:00Z", "FULL_NAME": "Acton Town station" }, "geometry": { "type": "Point", "coordinates": [ -0.279999104605516, 51.502646450286797, 0.0 ] } },
{ "type": "Feature", "properties": { "OBJECTID": 292, "NAME": "Ealing Common", "LINES": "District, Piccadilly", "ATCOCODE": "940GZZLUECM", "MODES": "tube, bus", "ACCESSIBILITY": "Partially Accessible - Interchange Only", "NIGHT_TUBE": "No", "NETWORK": "London Underground", "DATASET_LAST_UPDATED": "2021-11-29T00:00:00Z", "FULL_NAME": "Ealing Common station" }, "geometry": { "type": "Point", "coordinates": [ -0.288121126759677, 51.5095442418354, 0.0 ] } },
{ "type": "Feature", "properties": { "OBJECTID": 293, "NAME": "Green Park", "LINES": "Piccadilly, Victoria, Jubilee", "ATCOCODE": "940GZZLUGPK", "MODES": "bus, tube", "ACCESSIBILITY": "Fully Accessible", "NIGHT_TUBE": "Yes", "NETWORK": "London Underground", "DATASET_LAST_UPDATED": "2021-11-29T00:00:00Z", "FULL_NAME": "Green Park station" }, "geometry": { "type": "Point", "coordinates": [ -0.142516829185471, 51.506869104555904, 0.0 ] } },
{ "type": "Feature", "properties": { "OBJECTID": 294, "NAME": "Finsbury Park", "LINES": "Piccadilly, Victoria", "ATCOCODE": "940GZZLUFPK", "MODES": "tube", "ACCESSIBILITY": "Partially Accessible - Interchange Only", "NIGHT_TUBE": "Yes", "NETWORK": "London Underground", "DATASET_LAST_UPDATED": "2021-11-29T00:00:00Z", "FULL_NAME": "Finsbury Park station" }, "geometry": { "type": "Point", "coordinates": [ -0.106653230276946, 51.564572681138401, 0.0 ] } },
{ "type": "Feature", "properties": { "OBJECTID": 295, "NAME": "Stockwell", "LINES": "Northern, Victoria", "ATCOCODE": "940GZZLUSKW", "MODES": "bus, tube", "ACCESSIBILITY": "Partially Accessible - Interchange Only", "NIGHT_TUBE": "Yes", "NETWORK": "London Underground", "DATASET_LAST_UPDATED": "2021-11-29T00:00:00Z", "FULL_NAME": "Stockwell station" }, "geometry": { "type": "Point", "coordinates": [ -0.12301670611174, 51.471829306307598, 0.0 ] } },
{ "type": "Feature", "properties": { "OBJECTID": 296, "NAME": "Morden", "LINES": "Northern", "ATCOCODE": "940GZZLUMDN", "MODES": "tube, bus", "ACCESSIBILITY": "Fully Accessible", "NIGHT_TUBE": "Yes", "NETWORK": "London Underground", "DATASET_LAST_UPDATED": "2021-11-29T00:00:00Z", "FULL_NAME": "Morden station" }, "geometry": { "type": "Point", "coordinates": [ -0.194730076004683, 51.402537273365098, 0.0 ] } },
{ "type": "Feature", "properties": { "OBJECTID": 297, "NAME": "Hammersmith (H&C Line)", "LINES": "Hammersmith & City", "ATCOCODE": "940GZZLUHSC", "MODES": "tube", "ACCESSIBILITY": "Fully Accessible", "NIGHT_TUBE": "No", "NETWORK": "London Underground", "DATASET_LAST_UPDATED": "2021-11-29T00:00:00Z", "FULL_NAME": "Hammersmith (H&C Line) station" }, "geometry": { "type": "Point", "coordinates": [ -0.224905917275528, 51.493785004491698, 0.0 ] } },
{ "type": "Feature", "properties": { "OBJECTID": 298, "NAME": "Hatton Cross", "LINES": "Piccadilly", "ATCOCODE": "940GZZLUHNX", "MODES": "tube, bus", "ACCESSIBILITY": "Not Accessible", "NIGHT_TUBE": "Yes", "NETWORK": "London Underground", "DATASET_LAST_UPDATED": "2021-11-29T00:00:00Z", "FULL_NAME": "Hatton Cross station" }, "geometry": { "type": "Point", "coordinates": [ -0.423443496172184, 51.466627826375003, 0.0 ] } },
{ "type": "Feature", "properties": { "OBJECTID": 299, "NAME": "Hounslow West", "LINES": "Piccadilly", "ATCOCODE": "940GZZLUHWT", "MODES": "bus, tube", "ACCESSIBILITY": "Fully Accessible", "NIGHT_TUBE": "Yes", "NETWORK": "London Underground", "DATASET_LAST_UPDATED": "2021-11-29T00:00:00Z", "FULL_NAME": "Hounslow West station" }, "geometry": { "type": "Point", "coordinates": [ -0.385772788856648, 51.473618745259898, 0.0 ] } },
{ "type": "Feature", "properties": { "OBJECTID": 300, "NAME": "Hounslow Central", "LINES": "Piccadilly", "ATCOCODE": "940GZZLUHWC", "MODES": "tube, bus", "ACCESSIBILITY": "Not Accessible", "NIGHT_TUBE": "Yes", "NETWORK": "London Underground", "DATASET_LAST_UPDATED": "2021-11-29T00:00:00Z", "FULL_NAME": "Hounslow Central station" }, "geometry": { "type": "Point", "coordinates": [ -0.366272590499386, 51.471319678598299, 0.0 ] } },
{ "type": "Feature", "properties": { "OBJECTID": 301, "NAME": "Hounslow East", "LINES": "Piccadilly", "ATCOCODE": "940GZZLUHWE", "MODES": "bus, tube", "ACCESSIBILITY": "Fully Accessible", "NIGHT_TUBE": "Yes", "NETWORK": "London Underground", "DATASET_LAST_UPDATED": "2021-11-29T00:00:00Z", "FULL_NAME": "Hounslow East station" }, "geometry": { "type": "Point", "coordinates": [ -0.356313033726448, 51.4732627979418, 0.0 ] } },
{ "type": "Feature", "properties": { "OBJECTID": 302, "NAME": "Osterley", "LINES": "Piccadilly", "ATCOCODE": "940GZZLUOSY", "MODES": "tube, bus", "ACCESSIBILITY": "Not Accessible", "NIGHT_TUBE": "Yes", "NETWORK": "London Underground", "DATASET_LAST_UPDATED": "2021-11-29T00:00:00Z", "FULL_NAME": "Osterley station" }, "geometry": { "type": "Point", "coordinates": [ -0.352199309980199, 51.481243513473501, 0.0 ] } },
{ "type": "Feature", "properties": { "OBJECTID": 303, "NAME": "Northfields", "LINES": "Piccadilly", "ATCOCODE": "940GZZLUNFD", "MODES": "tube, bus", "ACCESSIBILITY": "Not Accessible", "NIGHT_TUBE": "Yes", "NETWORK": "London Underground", "DATASET_LAST_UPDATED": "2021-11-29T00:00:00Z", "FULL_NAME": "Northfields station" }, "geometry": { "type": "Point", "coordinates": [ -0.312972772078149, 51.499655329164803, 0.0 ] } },
{ "type": "Feature", "properties": { "OBJECTID": 304, "NAME": "Barons Court", "LINES": "District, Piccadilly", "ATCOCODE": "940GZZLUBSC", "MODES": "tube", "ACCESSIBILITY": "Partially Accessible - Interchange Only", "NIGHT_TUBE": "Yes", "NETWORK": "London Underground", "DATASET_LAST_UPDATED": "2021-11-29T00:00:00Z", "FULL_NAME": "Barons Court station" }, "geometry": { "type": "Point", "coordinates": [ -0.214660488067239, 51.490299337442401, 0.0 ] } },
{ "type": "Feature", "properties": { "OBJECTID": 305, "NAME": "Fulham Broadway", "LINES": "District", "ATCOCODE": "940GZZLUFBY", "MODES": "bus, tube", "ACCESSIBILITY": "Fully Accessible", "NIGHT_TUBE": "No", "NETWORK": "London Underground", "DATASET_LAST_UPDATED": "2021-11-29T00:00:00Z", "FULL_NAME": "Fulham Broadway station" }, "geometry": { "type": "Point", "coordinates": [ -0.194742482172033, 51.480768615439302, 0.0 ] } },
{ "type": "Feature", "properties": { "OBJECTID": 306, "NAME": "West Brompton", "LINES": "District", "ATCOCODE": "940GZZLUWBN", "MODES": "tube", "ACCESSIBILITY": "Partially Accessible", "NIGHT_TUBE": "No", "NETWORK": "London Underground", "DATASET_LAST_UPDATED": "2021-11-29T00:00:00Z", "FULL_NAME": "West Brompton station" }, "geometry": { "type": "Point", "coordinates": [ -0.195547893072088, 51.487280504759198, 0.0 ] } },
{ "type": "Feature", "properties": { "OBJECTID": 307, "NAME": "Stamford Brook", "LINES": "District", "ATCOCODE": "940GZZLUSFB", "MODES": "bus, tube", "ACCESSIBILITY": "Not Accessible", "NIGHT_TUBE": "No", "NETWORK": "London Underground", "DATASET_LAST_UPDATED": "2021-11-29T00:00:00Z", "FULL_NAME": "Stamford Brook station" }, "geometry": { "type": "Point", "coordinates": [ -0.245978135514486, 51.494919038542299, 0.0 ] } },
{ "type": "Feature", "properties": { "OBJECTID": 308, "NAME": "Turnham Green", "LINES": "District, Piccadilly", "ATCOCODE": "940GZZLUTNG", "MODES": "tube, bus", "ACCESSIBILITY": "Partially Accessible - Interchange Only", "NIGHT_TUBE": "No", "NETWORK": "London Underground", "DATASET_LAST_UPDATED": "2021-11-29T00:00:00Z", "FULL_NAME": "Turnham Green station" }, "geometry": { "type": "Point", "coordinates": [ -0.254527388575046, 51.494958716530199, 0.0 ] } },
{ "type": "Feature", "properties": { "OBJECTID": 309, "NAME": "Aldgate East", "LINES": "Hammersmith & City, District", "ATCOCODE": "940GZZLUADE", "MODES": "bus, tube", "ACCESSIBILITY": "Not Accessible", "NIGHT_TUBE": "No", "NETWORK": "London Underground", "DATASET_LAST_UPDATED": "2021-11-29T00:00:00Z", "FULL_NAME": "Aldgate East station" }, "geometry": { "type": "Point", "coordinates": [ -0.071127223916364, 51.515428316714697, 0.0 ] } },
{ "type": "Feature", "properties": { "OBJECTID": 310, "NAME": "Whitechapel", "LINES": "District, Hammersmith & City", "ATCOCODE": "940GZZLUWPL", "MODES": "tube", "ACCESSIBILITY": "Not Accessible", "NIGHT_TUBE": "No", "NETWORK": "London Underground", "DATASET_LAST_UPDATED": "2021-11-29T00:00:00Z", "FULL_NAME": "Whitechapel station" }, "geometry": { "type": "Point", "coordinates": [ -0.060741995760638, 51.5195334172938, 0.0 ] } },
{ "type": "Feature", "properties": { "OBJECTID": 311, "NAME": "Bow Road", "LINES": "District, Hammersmith & City", "ATCOCODE": "940GZZLUBWR", "MODES": "bus, tube", "ACCESSIBILITY": "Not Accessible", "NIGHT_TUBE": "No", "NETWORK": "London Underground", "DATASET_LAST_UPDATED": "2021-11-29T00:00:00Z", "FULL_NAME": "Bow Road station" }, "geometry": { "type": "Point", "coordinates": [ -0.025175687286684, 51.526904122791898, 0.0 ] } },
{ "type": "Feature", "properties": { "OBJECTID": 312, "NAME": "Wembley Park", "LINES": "Metropolitan, Jubilee", "ATCOCODE": "940GZZLUWYP", "MODES": "bus, tube", "ACCESSIBILITY": "Fully Accessible", "NIGHT_TUBE": "Yes", "NETWORK": "London Underground", "DATASET_LAST_UPDATED": "2021-11-29T00:00:00Z", "FULL_NAME": "Wembley Park station" }, "geometry": { "type": "Point", "coordinates": [ -0.280026668594193, 51.563762888993701, 0.0 ] } },
{ "type": "Feature", "properties": { "OBJECTID": 313, "NAME": "Neasden", "LINES": "Jubilee", "ATCOCODE": "940GZZLUNDN", "MODES": "bus, tube", "ACCESSIBILITY": "Not Accessible", "NIGHT_TUBE": "Yes", "NETWORK": "London Underground", "DATASET_LAST_UPDATED": "2021-11-29T00:00:00Z", "FULL_NAME": "Neasden station" }, "geometry": { "type": "Point", "coordinates": [ -0.251146617248987, 51.5544285977155, 0.0 ] } },
{ "type": "Feature", "properties": { "OBJECTID": 314, "NAME": "Totteridge & Whetstone", "LINES": "Northern", "ATCOCODE": "940GZZLUTAW", "MODES": "tube, bus", "ACCESSIBILITY": "Not Accessible", "NIGHT_TUBE": "Yes", "NETWORK": "London Underground", "DATASET_LAST_UPDATED": "2021-11-29T00:00:00Z", "FULL_NAME": "Totteridge & Whetstone station" }, "geometry": { "type": "Point", "coordinates": [ -0.179179947727096, 51.630590676451597, 0.0 ] } },
{ "type": "Feature", "properties": { "OBJECTID": 315, "NAME": "Heathrow Terminal 4", "LINES": "Piccadilly", "ATCOCODE": "940GZZLUHR4", "MODES": "tube", "ACCESSIBILITY": "Fully Accessible", "NIGHT_TUBE": "Yes", "NETWORK": "London Underground", "DATASET_LAST_UPDATED": "2021-11-29T00:00:00Z", "FULL_NAME": "Heathrow Terminal 4 station" }, "geometry": { "type": "Point", "coordinates": [ -0.445693269874028, 51.458540541081803, 0.0 ] } },
{ "type": "Feature", "properties": { "OBJECTID": 316, "NAME": "West Acton", "LINES": "Central", "ATCOCODE": "940GZZLUWTA", "MODES": "bus, tube", "ACCESSIBILITY": "Not Accessible", "NIGHT_TUBE": "Yes", "NETWORK": "London Underground", "DATASET_LAST_UPDATED": "2021-11-29T00:00:00Z", "FULL_NAME": "West Acton station" }, "geometry": { "type": "Point", "coordinates": [ -0.280930981543848, 51.517981395752699, 0.0 ] } },
{ "type": "Feature", "properties": { "OBJECTID": 317, "NAME": "Stratford", "LINES": "Central, Jubilee", "ATCOCODE": "940GZZLUSTD", "MODES": "tube", "ACCESSIBILITY": "Fully Accessible", "NIGHT_TUBE": "Yes", "NETWORK": "London Underground", "DATASET_LAST_UPDATED": "2021-11-29T00:00:00Z", "FULL_NAME": "Stratford station" }, "geometry": { "type": "Point", "coordinates": [ -0.003776772458058, 51.541458245924098, 0.0 ] } },
{ "type": "Feature", "properties": { "OBJECTID": 318, "NAME": "Uxbridge", "LINES": "Metropolitan, Piccadilly", "ATCOCODE": "940GZZLUUXB", "MODES": "bus, tube", "ACCESSIBILITY": "Fully Accessible", "NIGHT_TUBE": "No", "NETWORK": "London Underground", "DATASET_LAST_UPDATED": "2021-11-29T00:00:00Z", "FULL_NAME": "Uxbridge station" }, "geometry": { "type": "Point", "coordinates": [ -0.47761385063621, 51.546464016624, 0.0 ] } },
{ "type": "Feature", "properties": { "OBJECTID": 319, "NAME": "Hillingdon", "LINES": "Metropolitan, Piccadilly", "ATCOCODE": "940GZZLUHGD", "MODES": "bus, tube", "ACCESSIBILITY": "Fully Accessible", "NIGHT_TUBE": "No", "NETWORK": "London Underground", "DATASET_LAST_UPDATED": "2021-11-29T00:00:00Z", "FULL_NAME": "Hillingdon station" }, "geometry": { "type": "Point", "coordinates": [ -0.449363066188412, 51.553950950447103, 0.0 ] } },
{ "type": "Feature", "properties": { "OBJECTID": 320, "NAME": "Ickenham", "LINES": "Metropolitan, Piccadilly", "ATCOCODE": "940GZZLUICK", "MODES": "tube, bus", "ACCESSIBILITY": "Not Accessible", "NIGHT_TUBE": "No", "NETWORK": "London Underground", "DATASET_LAST_UPDATED": "2021-11-29T00:00:00Z", "FULL_NAME": "Ickenham station" }, "geometry": { "type": "Point", "coordinates": [ -0.442019216932921, 51.561970664432302, 0.0 ] } },
{ "type": "Feature", "properties": { "OBJECTID": 321, "NAME": "Ruislip", "LINES": "Metropolitan, Piccadilly", "ATCOCODE": "940GZZLURSP", "MODES": "bus, tube", "ACCESSIBILITY": "Partially Accessible", "NIGHT_TUBE": "No", "NETWORK": "London Underground", "DATASET_LAST_UPDATED": "2021-11-29T00:00:00Z", "FULL_NAME": "Ruislip station" }, "geometry": { "type": "Point", "coordinates": [ -0.421769765301183, 51.571293449854203, 0.0 ] } },
{ "type": "Feature", "properties": { "OBJECTID": 322, "NAME": "Ruislip Manor", "LINES": "Metropolitan, Piccadilly", "ATCOCODE": "940GZZLURSM", "MODES": "bus, tube", "ACCESSIBILITY": "Not Accessible", "NIGHT_TUBE": "No", "NETWORK": "London Underground", "DATASET_LAST_UPDATED": "2021-11-29T00:00:00Z", "FULL_NAME": "Ruislip Manor station" }, "geometry": { "type": "Point", "coordinates": [ -0.411791491503135, 51.573477882519697, 0.0 ] } },
{ "type": "Feature", "properties": { "OBJECTID": 323, "NAME": "Northwood Hills", "LINES": "Metropolitan", "ATCOCODE": "940GZZLUNWH", "MODES": "tube, bus", "ACCESSIBILITY": "Not Accessible", "NIGHT_TUBE": "No", "NETWORK": "London Underground", "DATASET_LAST_UPDATED": "2021-11-29T00:00:00Z", "FULL_NAME": "Northwood Hills station" }, "geometry": { "type": "Point", "coordinates": [ -0.408724956208854, 51.600195157834399, 0.0 ] } },
{ "type": "Feature", "properties": { "OBJECTID": 324, "NAME": "West Harrow", "LINES": "Metropolitan", "ATCOCODE": "940GZZLUWHW", "MODES": "tube", "ACCESSIBILITY": "Not Accessible", "NIGHT_TUBE": "No", "NETWORK": "London Underground", "DATASET_LAST_UPDATED": "2021-11-29T00:00:00Z", "FULL_NAME": "West Harrow station" }, "geometry": { "type": "Point", "coordinates": [ -0.353268235642068, 51.579568374217899, 0.0 ] } },
{ "type": "Feature", "properties": { "OBJECTID": 325, "NAME": "Rayners Lane", "LINES": "Metropolitan, Piccadilly", "ATCOCODE": "940GZZLURYL", "MODES": "bus, tube", "ACCESSIBILITY": "Partially Accessible - Interchange Only", "NIGHT_TUBE": "No", "NETWORK": "London Underground", "DATASET_LAST_UPDATED": "2021-11-29T00:00:00Z", "FULL_NAME": "Rayners Lane station" }, "geometry": { "type": "Point", "coordinates": [ -0.371424615779741, 51.575197076660501, 0.0 ] } },
{ "type": "Feature", "properties": { "OBJECTID": 326, "NAME": "North Harrow", "LINES": "Metropolitan", "ATCOCODE": "940GZZLUNHA", "MODES": "bus, tube", "ACCESSIBILITY": "Not Accessible", "NIGHT_TUBE": "No", "NETWORK": "London Underground", "DATASET_LAST_UPDATED": "2021-11-29T00:00:00Z", "FULL_NAME": "North Harrow station" }, "geometry": { "type": "Point", "coordinates": [ -0.362582721579554, 51.584949148138399, 0.0 ] } },
{ "type": "Feature", "properties": { "OBJECTID": 327, "NAME": "Pinner", "LINES": "Metropolitan", "ATCOCODE": "940GZZLUPNR", "MODES": "tube, bus", "ACCESSIBILITY": "Fully Accessible", "NIGHT_TUBE": "No", "NETWORK": "London Underground", "DATASET_LAST_UPDATED": "2021-11-29T00:00:00Z", "FULL_NAME": "Pinner station" }, "geometry": { "type": "Point", "coordinates": [ -0.381140145085807, 51.592828088851398, 0.0 ] } },
{ "type": "Feature", "properties": { "OBJECTID": 328, "NAME": "Harrow-on-the-Hill", "LINES": "Metropolitan", "ATCOCODE": "940GZZLUHOH", "MODES": "tube", "ACCESSIBILITY": "Partially Accessible - Interchange Only", "NIGHT_TUBE": "No", "NETWORK": "London Underground", "DATASET_LAST_UPDATED": "2021-11-29T00:00:00Z", "FULL_NAME": "Harrow-on-the-Hill station" }, "geometry": { "type": "Point", "coordinates": [ -0.336729895702129, 51.579416317194202, 0.0 ] } },
{ "type": "Feature", "properties": { "OBJECTID": 329, "NAME": "Northwick Park", "LINES": "Metropolitan", "ATCOCODE": "940GZZLUNKP", "MODES": "tube, bus", "ACCESSIBILITY": "Partially Accessible - Interchange Only", "NIGHT_TUBE": "No", "NETWORK": "London Underground", "DATASET_LAST_UPDATED": "2021-11-29T00:00:00Z", "FULL_NAME": "Northwick Park station" }, "geometry": { "type": "Point", "coordinates": [ -0.318043772012892, 51.578476899384199, 0.0 ] } },
{ "type": "Feature", "properties": { "OBJECTID": 330, "NAME": "Stanmore", "LINES": "Jubilee", "ATCOCODE": "940GZZLUSTM", "MODES": "tube, bus", "ACCESSIBILITY": "Fully Accessible", "NIGHT_TUBE": "Yes", "NETWORK": "London Underground", "DATASET_LAST_UPDATED": "2021-11-29T00:00:00Z", "FULL_NAME": "Stanmore station" }, "geometry": { "type": "Point", "coordinates": [ -0.303238655645259, 51.6197138463166, 0.0 ] } },
{ "type": "Feature", "properties": { "OBJECTID": 331, "NAME": "Canons Park", "LINES": "Jubilee", "ATCOCODE": "940GZZLUCPK", "MODES": "bus, tube", "ACCESSIBILITY": "Not Accessible", "NIGHT_TUBE": "Yes", "NETWORK": "London Underground", "DATASET_LAST_UPDATED": "2021-11-29T00:00:00Z", "FULL_NAME": "Canons Park station" }, "geometry": { "type": "Point", "coordinates": [ -0.294670499457552, 51.607711460785097, 0.0 ] } },
{ "type": "Feature", "properties": { "OBJECTID": 332, "NAME": "St. John's Wood", "LINES": "Jubilee", "ATCOCODE": "940GZZLUSJW", "MODES": "tube, bus", "ACCESSIBILITY": "Not Accessible", "NIGHT_TUBE": "Yes", "NETWORK": "London Underground", "DATASET_LAST_UPDATED": "2021-11-29T00:00:00Z", "FULL_NAME": "St. John's Wood station" }, "geometry": { "type": "Point", "coordinates": [ -0.174122398684123, 51.535206957322103, 0.0 ] } },
{ "type": "Feature", "properties": { "OBJECTID": 333, "NAME": "Southwark", "LINES": "Jubilee", "ATCOCODE": "940GZZLUSWK", "MODES": "bus, tube", "ACCESSIBILITY": "Fully Accessible", "NIGHT_TUBE": "Yes", "NETWORK": "London Underground", "DATASET_LAST_UPDATED": "2021-11-29T00:00:00Z", "FULL_NAME": "Southwark station" }, "geometry": { "type": "Point", "coordinates": [ -0.10537174281666, 51.504288981458899, 0.0 ] } },
{ "type": "Feature", "properties": { "OBJECTID": 334, "NAME": "London Bridge", "LINES": "Northern, Jubilee", "ATCOCODE": "940GZZLULNB", "MODES": "tube", "ACCESSIBILITY": "Fully Accessible", "NIGHT_TUBE": "Yes", "NETWORK": "London Underground", "DATASET_LAST_UPDATED": "2021-11-29T00:00:00Z", "FULL_NAME": "London Bridge station" }, "geometry": { "type": "Point", "coordinates": [ -0.089622674026004, 51.505066443780102, 0.0 ] } },
{ "type": "Feature", "properties": { "OBJECTID": 335, "NAME": "Wimbledon", "LINES": "District", "ATCOCODE": "940GZZLUWIM", "MODES": "tube", "ACCESSIBILITY": "Fully Accessible", "NIGHT_TUBE": "No", "NETWORK": "London Underground", "DATASET_LAST_UPDATED": "2021-11-29T00:00:00Z", "FULL_NAME": "Wimbledon station" }, "geometry": { "type": "Point", "coordinates": [ -0.206490546635829, 51.421434281596099, 0.0 ] } },
{ "type": "Feature", "properties": { "OBJECTID": 336, "NAME": "West Finchley", "LINES": "Northern", "ATCOCODE": "940GZZLUWFN", "MODES": "tube", "ACCESSIBILITY": "Fully Accessible", "NIGHT_TUBE": "Yes", "NETWORK": "London Underground", "DATASET_LAST_UPDATED": "2021-11-29T00:00:00Z", "FULL_NAME": "West Finchley station" }, "geometry": { "type": "Point", "coordinates": [ -0.188317206667133, 51.6094899674085, 0.0 ] } },
{ "type": "Feature", "properties": { "OBJECTID": 379, "NAME": "Battersea Power Station", "LINES": "Northern", "ATCOCODE": null, "MODES": "tube", "ACCESSIBILITY": null, "NIGHT_TUBE": "Yes", "NETWORK": "London Underground", "DATASET_LAST_UPDATED": "2021-11-29T00:00:00Z", "FULL_NAME": "Battersea Power Station station" }, "geometry": { "type": "Point", "coordinates": [ -0.14337592387698, 51.479476844445998, 0.0 ] } },
{ "type": "Feature", "properties": { "OBJECTID": 380, "NAME": "Nine Elms", "LINES": "Northern", "ATCOCODE": null, "MODES": "tube", "ACCESSIBILITY": null, "NIGHT_TUBE": "Yes", "NETWORK": "London Underground", "DATASET_LAST_UPDATED": "2021-11-29T00:00:00Z", "FULL_NAME": "Nine Elms station" }, "geometry": { "type": "Point", "coordinates": [ -0.129460177384867, 51.480140249560598, 0.0 ] } },
{ "type": "Feature", "properties": { "OBJECTID": 384, "NAME": "Edgware", "LINES": "Northern", "ATCOCODE": "940GZZLUEGW", "MODES": "bus, tube", "ACCESSIBILITY": "Fully Accessible", "NIGHT_TUBE": "Yes", "NETWORK": "London Underground", "DATASET_LAST_UPDATED": "2021-11-29T00:00:00Z", "FULL_NAME": "Edgware station" }, "geometry": { "type": "Point", "coordinates": [ -0.274754442836556, 51.613610747663003, 0.0 ] } },
{ "type": "Feature", "properties": { "OBJECTID": 385, "NAME": "North Ealing", "LINES": "Piccadilly", "ATCOCODE": "940GZZLUNEN", "MODES": "bus, tube", "ACCESSIBILITY": "Not Accessible", "NIGHT_TUBE": "Yes", "NETWORK": "London Underground", "DATASET_LAST_UPDATED": "2021-11-29T00:00:00Z", "FULL_NAME": "North Ealing station" }, "geometry": { "type": "Point", "coordinates": [ -0.288802338201631, 51.517483418089597, 0.0 ] } },
{ "type": "Feature", "properties": { "OBJECTID": 386, "NAME": "Caledonian Road", "LINES": "Piccadilly", "ATCOCODE": "940GZZLUCAR", "MODES": "tube, bus", "ACCESSIBILITY": "Fully Accessible", "NIGHT_TUBE": "Yes", "NETWORK": "London Underground", "DATASET_LAST_UPDATED": "2021-11-29T00:00:00Z", "FULL_NAME": "Caledonian Road station" }, "geometry": { "type": "Point", "coordinates": [ -0.118447284607226, 51.548525982821602, 0.0 ] } },
{ "type": "Feature", "properties": { "OBJECTID": 387, "NAME": "Monument", "LINES": "District, Circle", "ATCOCODE": "940GZZLUMMT", "MODES": "tube, bus", "ACCESSIBILITY": "Partially Accessible - Interchange Only", "NIGHT_TUBE": "No", "NETWORK": "London Underground", "DATASET_LAST_UPDATED": "2021-11-29T00:00:00Z", "FULL_NAME": "Monument station" }, "geometry": { "type": "Point", "coordinates": [ -0.086087622090599, 51.5107212088704, 0.0 ] } },