{
"type": "FeatureCollection",
"name": "Elizabeth_Line_Stations",
"crs": { "type": "name", "properties": { "name": "urn:ogc:def:crs:OGC:1.3:CRS84" } },
"features": [
{ "type": "Feature", "properties": { "OBJECTID": 381, "NAME": "Forest Gate", "LINES": "Elizabeth Line", "ACCESSIBILITY": "Fully Accessible", "NETWORK": "TfL Rail", "DATASET_LAST_UPDATED": "2022-05-26T00:00:00Z", "FULL_NAME": "Forest Gate station" }, "geometry": { "type": "Point", "coordinates": [ 0.023666182989344, 51.549233845678401, 0.0 ] } },
{ "type": "Feature", "properties": { "OBJECTID": 382, "NAME": "Ilford", "LINES": "Elizabeth Line", "ACCESSIBILITY": "Fully Accessible", "NETWORK": "TfL Rail", "DATASET_LAST_UPDATED": "2022-05-26T00:00:00Z", "FULL_NAME": "Ilford station" }, "geometry": { "type": "Point", "coordinates": [ 0.068920588180649, 51.559017062077999, 0.0 ] } },
{ "type": "Feature", "properties": { "OBJECTID": 383, "NAME": "Seven Kings", "LINES": "Elizabeth Line", "ACCESSIBILITY": "Fully Accessible", "NETWORK": "TfL Rail", "DATASET_LAST_UPDATED": "2022-05-26T00:00:00Z", "FULL_NAME": "Seven Kings station" }, "geometry": { "type": "Point", "coordinates": [ 0.096099522279822, 51.563948526458198, 0.0 ] } },
{ "type": "Feature", "properties": { "OBJECTID": 401, "NAME": "Goodmayes", "LINES": "Elizabeth Line", "ACCESSIBILITY": "Fully Accessible", "NETWORK": "TfL Rail", "DATASET_LAST_UPDATED": "2022-05-26T00:00:00Z", "FULL_NAME": "Goodmayes station" }, "geometry": { "type": "Point", "coordinates": [ 0.111862006843126, 51.565788086285103, 0.0 ] } },
{ "type": "Feature", "properties": { "OBJECTID": 402, "NAME": "Romford", "LINES": "Elizabeth Line", "ACCESSIBILITY": "Fully Accessible", "NETWORK": "TfL Rail", "DATASET_LAST_UPDATED": "2022-05-26T00:00:00Z", "FULL_NAME": "Romford station" }, "geometry": { "type": "Point", "coordinates": [ 0.182310614725856, 51.574691498515598, 0.0 ] } },
{ "type": "Feature", "properties": { "OBJECTID": 403, "NAME": "Gidea Park", "LINES": "Elizabeth Line", "ACCESSIBILITY": "Fully Accessible", "NETWORK": "TfL Rail", "DATASET_LAST_UPDATED": "2022-05-26T00:00:00Z", "FULL_NAME": "Gidea Park station" }, "geometry": { "type": "Point", "coordinates": [ 0.206252459997293, 51.582061156952101, 0.0 ] } },
{ "type": "Feature", "properties": { "OBJECTID": 404, "NAME": "Custom House", "LINES": "Elizabeth Line", "ACCESSIBILITY": "Fully Accessible", "NETWORK": "TfL Rail", "DATASET_LAST_UPDATED": "2022-05-26T00:00:00Z", "FULL_NAME": "Custom House station" }, "geometry": { "type": "Point", "coordinates": [ 0.028601072119328, 51.509826689961301, 0.0 ] } },
{ "type": "Feature", "properties": { "OBJECTID": 405, "NAME": "Maryland", "LINES": "Elizabeth Line", "ACCESSIBILITY": "Fully Accessible", "NETWORK": "TfL Rail", "DATASET_LAST_UPDATED": "2022-05-26T00:00:00Z", "FULL_NAME": "Maryland station" }, "geometry": { "type": "Point", "coordinates": [ 0.005996063796468, 51.545977576083999, 0.0 ] } },
{ "type": "Feature", "properties": { "OBJECTID": 406, "NAME": "Abbey Wood", "LINES": "Elizabeth Line", "ACCESSIBILITY": "Fully Accessible", "NETWORK": "TfL Rail", "DATASET_LAST_UPDATED": "2022-05-26T00:00:00Z", "FULL_NAME": "Abbey Wood station" }, "geometry": { "type": "Point", "coordinates": [ 0.120572354210472, 51.491074372672998, 0.0 ] } },
{ "type": "Feature", "properties": { "OBJECTID": 407, "NAME": "Woolwich", "LINES": "Elizabeth Line", "ACCESSIBILITY": "Fully Accessible", "NETWORK": "TfL Rail", "DATASET_LAST_UPDATED": "2022-05-26T00:00:00Z", "FULL_NAME": "Woolwich station" }, "geometry": { "type": "Point", "coordinates": [ 0.072146166006162, 51.4916682672539, 0.0 ] } },
{ "type": "Feature", "properties": { "OBJECTID": 408, "NAME": "Liverpool Street", "LINES": "Elizabeth Line", "ACCESSIBILITY": "Fully Accessible", "NETWORK": "TfL Rail", "DATASET_LAST_UPDATED": "2022-05-26T00:00:00Z", "FULL_NAME": "Liverpool Street station" }, "geometry": { "type": "Point", "coordinates": [ -0.086665963519332, 51.517688752745499, 0.0 ] } },
{ "type": "Feature", "properties": { "OBJECTID": 409, "NAME": "Whitechapel", "LINES": "Elizabeth Line", "ACCESSIBILITY": "Fully Accessible", "NETWORK": "TfL Rail", "DATASET_LAST_UPDATED": "2022-05-26T00:00:00Z", "FULL_NAME": "Whitechapel station" }, "geometry": { "type": "Point", "coordinates": [ -0.059412053468543, 51.520237202864898, 0.0 ] } },
{ "type": "Feature", "properties": { "OBJECTID": 410, "NAME": "Stratford", "LINES": "Elizabeth Line", "ACCESSIBILITY": "Fully Accessible", "NETWORK": "TfL Rail", "DATASET_LAST_UPDATED": "2022-05-26T00:00:00Z", "FULL_NAME": "Stratford station" }, "geometry": { "type": "Point", "coordinates": [ -0.004050015392151, 51.541438957341398, 0.0 ] } },
{ "type": "Feature", "properties": { "OBJECTID": 411, "NAME": "Paddington", "LINES": "Elizabeth Line", "ACCESSIBILITY": "Fully Accessible", "NETWORK": "TfL Rail", "DATASET_LAST_UPDATED": "2022-05-26T00:00:00Z", "FULL_NAME": "Paddington station" }, "geometry": { "type": "Point", "coordinates": [ -0.177726799026109, 51.516189660748701, 0.0 ] } },
{ "type": "Feature", "properties": { "OBJECTID": 412, "NAME": "Tottenham Court Road", "LINES": "Elizabeth Line", "ACCESSIBILITY": "Fully Accessible", "NETWORK": "TfL Rail", "DATASET_LAST_UPDATED": "2022-05-26T00:00:00Z", "FULL_NAME": "Tottenham Court Road station" }, "geometry": { "type": "Point", "coordinates": [ -0.132794834772714, 51.5153291013428, 0.0 ] } },
{ "type": "Feature", "properties": { "OBJECTID": 413, "NAME": "Bond Street", "LINES": "Elizabeth Line", "ACCESSIBILITY": "Fully Accessible", "NETWORK": "TfL Rail", "DATASET_LAST_UPDATED": "2022-05-26T00:00:00Z", "FULL_NAME": "Bond Street station" }, "geometry": { "type": "Point", "coordinates": [ -0.146299882290346, 51.513600893858502, 0.0 ] } },
{ "type": "Feature", "properties": { "OBJECTID": 414, "NAME": "Farringdon", "LINES": "Elizabeth Line", "ACCESSIBILITY": "Fully Accessible", "NETWORK": "TfL Rail", "DATASET_LAST_UPDATED": "2022-05-26T00:00:00Z", "FULL_NAME": "Farringdon station" }, "geometry": { "type": "Point", "coordinates": [ -0.102264312223024, 51.5199156517074, 0.0 ] } },
{ "type": "Feature", "properties": { "OBJECTID": 415, "NAME": "Harold Wood", "LINES": "Elizabeth Line", "ACCESSIBILITY": "Fully Accessible", "NETWORK": "TfL Rail", "DATASET_LAST_UPDATED": "2022-05-26T00:00:00Z", "FULL_NAME": "Harold Wood station" }, "geometry": { "type": "Point", "coordinates": [ 0.23467905574674, 51.593441517553003, 0.0 ] } },
{ "type": "Feature", "properties": { "OBJECTID": 416, "NAME": "Brentwood", "LINES": "Elizabeth Line", "ACCESSIBILITY": "Fully Accessible", "NETWORK": "TfL Rail", "DATASET_LAST_UPDATED": "2022-05-26T00:00:00Z", "FULL_NAME": "Brentwood station" }, "geometry": { "type": "Point", "coordinates": [ 0.300863802014936, 51.613556311616698, 0.0 ] } },
{ "type": "Feature", "properties": { "OBJECTID": 417, "NAME": "Langley", "LINES": "Elizabeth Line", "ACCESSIBILITY": "Fully Accessible", "NETWORK": "TfL Rail", "DATASET_LAST_UPDATED": "2022-05-26T00:00:00Z", "FULL_NAME": "Langley station" }, "geometry": { "type": "Point", "coordinates": [ -0.541220478543227, 51.5077307136009, 0.0 ] } },
{ "type": "Feature", "properties": { "OBJECTID": 418, "NAME": "Slough", "LINES": "Elizabeth Line", "ACCESSIBILITY": "Fully Accessible", "NETWORK": "TfL Rail", "DATASET_LAST_UPDATED": "2022-05-26T00:00:00Z", "FULL_NAME": "Slough station" }, "geometry": { "type": "Point", "coordinates": [ -0.591311761486714, 51.512095570072603, 0.0 ] } },
{ "type": "Feature", "properties": { "OBJECTID": 419, "NAME": "Burnham", "LINES": "Elizabeth Line", "ACCESSIBILITY": "Fully Accessible", "NETWORK": "TfL Rail", "DATASET_LAST_UPDATED": "2022-05-26T00:00:00Z", "FULL_NAME": "Burnham station" }, "geometry": { "type": "Point", "coordinates": [ -0.647139497463212, 51.523491165305202, 0.0 ] } },
{ "type": "Feature", "properties": { "OBJECTID": 420, "NAME": "Taplow", "LINES": "Elizabeth Line", "ACCESSIBILITY": "Fully Accessible", "NETWORK": "TfL Rail", "DATASET_LAST_UPDATED": "2022-05-26T00:00:00Z", "FULL_NAME": "Taplow station" }, "geometry": { "type": "Point", "coordinates": [ -0.681126220822406, 51.523225625767402, 0.0 ] } },
{ "type": "Feature", "properties": { "OBJECTID": 421, "NAME": "Iver", "LINES": "Elizabeth Line", "ACCESSIBILITY": "Fully Accessible", "NETWORK": "TfL Rail", "DATASET_LAST_UPDATED": "2022-05-26T00:00:00Z", "FULL_NAME": "Iver station" }, "geometry": { "type": "Point", "coordinates": [ -0.506062135369443, 51.508587455084701, 0.0 ] } },
{ "type": "Feature", "properties": { "OBJECTID": 422, "NAME": "Maidenhead", "LINES": "Elizabeth Line", "ACCESSIBILITY": "Fully Accessible", "NETWORK": "TfL Rail", "DATASET_LAST_UPDATED": "2022-05-26T00:00:00Z", "FULL_NAME": "Maidenhead station" }, "geometry": { "type": "Point", "coordinates": [ -0.722816765128484, 51.518386438516401, 0.0 ] } },
{ "type": "Feature", "properties": { "OBJECTID": 423, "NAME": "Heathrow Terminal 4", "LINES": "Elizabeth Line", "ACCESSIBILITY": "Fully Accessible", "NETWORK": "TfL Rail", "DATASET_LAST_UPDATED": "2022-05-26T00:00:00Z", "FULL_NAME": "Heathrow Terminal 4 station" }, "geometry": { "type": "Point", "coordinates": [ -0.446036089083126, 51.459206949356201, 0.0 ] } },
{ "type": "Feature", "properties": { "OBJECTID": 424, "NAME": "West Drayton", "LINES": "Elizabeth Line", "ACCESSIBILITY": "Fully Accessible", "NETWORK": "TfL Rail", "DATASET_LAST_UPDATED": "2022-05-26T00:00:00Z", "FULL_NAME": "West Drayton station" }, "geometry": { "type": "Point", "coordinates": [ -0.471729604528406, 51.509889680601901, 0.0 ] } },
{ "type": "Feature", "properties": { "OBJECTID": 425, "NAME": "Southall", "LINES": "Elizabeth Line", "ACCESSIBILITY": "Fully Accessible", "NETWORK": "TfL Rail", "DATASET_LAST_UPDATED": "2022-05-26T00:00:00Z", "FULL_NAME": "Southall station" }, "geometry": { "type": "Point", "coordinates": [ -0.377103336868026, 51.506146159313801, 0.0 ] } },
{ "type": "Feature", "properties": { "OBJECTID": 426, "NAME": "Hanwell", "LINES": "Elizabeth Line", "ACCESSIBILITY": "Fully Accessible", "NETWORK": "TfL Rail", "DATASET_LAST_UPDATED": "2022-05-26T00:00:00Z", "FULL_NAME": "Hanwell station" }, "geometry": { "type": "Point", "coordinates": [ -0.338290978031258, 51.511782613854201, 0.0 ] } },
{ "type": "Feature", "properties": { "OBJECTID": 427, "NAME": "Acton Main Line", "LINES": "Elizabeth Line", "ACCESSIBILITY": "Fully Accessible", "NETWORK": "TfL Rail", "DATASET_LAST_UPDATED": "2022-05-26T00:00:00Z", "FULL_NAME": "Acton Main Line station" }, "geometry": { "type": "Point", "coordinates": [ -0.267597692382793, 51.517084496168202, 0.0 ] } },
{ "type": "Feature", "properties": { "OBJECTID": 428, "NAME": "Heathrow Terminals 1-2-3", "LINES": "Elizabeth Line", "ACCESSIBILITY": "Fully Accessible", "NETWORK": "TfL Rail", "DATASET_LAST_UPDATED": "2022-05-26T00:00:00Z", "FULL_NAME": "Heathrow Terminals 1-2-3 station" }, "geometry": { "type": "Point", "coordinates": [ -0.453716360151794, 51.471915342982903, 0.0 ] } },
{ "type": "Feature", "properties": { "OBJECTID": 429, "NAME": "Ealing Broadway", "LINES": "Elizabeth Line", "ACCESSIBILITY": "Fully Accessible", "NETWORK": "TfL Rail", "DATASET_LAST_UPDATED": "2022-05-26T00:00:00Z", "FULL_NAME": "Ealing Broadway station" }, "geometry": { "type": "Point", "coordinates": [ -0.301517410448214, 51.5147471761479, 0.0 ] } },
{ "type": "Feature", "properties": { "OBJECTID": 430, "NAME": "Twyford", "LINES": "Elizabeth Line", "ACCESSIBILITY": "Fully Accessible", "NETWORK": "TfL Rail", "DATASET_LAST_UPDATED": "2022-05-26T00:00:00Z", "FULL_NAME": "Twyford station" }, "geometry": { "type": "Point", "coordinates": [ -0.863117165825581, 51.475448585495798, 0.0 ] } },
{ "type": "Feature", "properties": { "OBJECTID": 431, "NAME": "Reading", "LINES": "Elizabeth Line", "ACCESSIBILITY": "Fully Accessible", "NETWORK": "TfL Rail", "DATASET_LAST_UPDATED": "2022-05-26T00:00:00Z", "FULL_NAME": "Reading station" }, "geometry": { "type": "Point", "coordinates": [ -0.972864130587324, 51.4591665388782, 0.0 ] } },
{ "type": "Feature", "properties": { "OBJECTID": 432, "NAME": "Heathrow Terminal 5", "LINES": "Elizabeth Line", "ACCESSIBILITY": "Fully Accessible", "NETWORK": "TfL Rail", "DATASET_LAST_UPDATED": "2022-05-26T00:00:00Z", "FULL_NAME": "Heathrow Terminal 5 station" }, "geometry": { "type": "Point", "coordinates": [ -0.488020171532433, 51.472526161045003, 0.0 ] } },
{ "type": "Feature", "properties": { "OBJECTID": 503, "NAME": "Manor Park", "LINES": "Elizabeth Line", "ACCESSIBILITY": "Fully Accessible", "NETWORK": "TfL Rail", "DATASET_LAST_UPDATED": "2022-05-26T00:00:00Z", "FULL_NAME": "Manor Park station" }, "geometry": { "type": "Point", "coordinates": [ 0.0453906478844, 51.552198511243603, 0.0 ] } },
{ "type": "Feature", "properties": { "OBJECTID": 504, "NAME": "Chadwell Heath", "LINES": "Elizabeth Line", "ACCESSIBILITY": "Fully Accessible", "NETWORK": "TfL Rail", "DATASET_LAST_UPDATED": "2022-05-26T00:00:00Z", "FULL_NAME": "Chadwell Heath station" }, "geometry": { "type": "Point", "coordinates": [ 0.128301880451545, 51.5680206127346, 0.0 ] } },
{ "type": "Feature", "properties": { "OBJECTID": 505, "NAME": "Canary Wharf", "LINES": "Elizabeth Line", "ACCESSIBILITY": "Fully Accessible", "NETWORK": "TfL Rail", "DATASET_LAST_UPDATED": "2022-05-26T00:00:00Z", "FULL_NAME": "Canary Wharf station" }, "geometry": { "type": "Point", "coordinates": [ -0.017187186026823, 51.506104946292901, 0.0 ] } },
{ "type": "Feature", "properties": { "OBJECTID": 506, "NAME": "Shenfield", "LINES": "Elizabeth Line", "ACCESSIBILITY": "Fully Accessible", "NETWORK": "TfL Rail", "DATASET_LAST_UPDATED": "2022-05-26T00:00:00Z", "FULL_NAME": "Shenfield station" }, "geometry": { "type": "Point", "coordinates": [ 0.32982380208185, 51.630585600038799, 0.0 ] } },
{ "type": "Feature", "properties": { "OBJECTID": 507, "NAME": "Hayes & Harlington", "LINES": "Elizabeth Line", "ACCESSIBILITY": "Fully Accessible", "NETWORK": "TfL Rail", "DATASET_LAST_UPDATED": "2022-05-26T00:00:00Z", "FULL_NAME": "Hayes & Harlington station" }, "geometry": { "type": "Point", "coordinates": [ -0.419356714654329, 51.503037250397803, 0.0 ] } },
{ "type": "Feature", "properties": { "OBJECTID": 508, "NAME": "West Ealing", "LINES": "Elizabeth Line", "ACCESSIBILITY": "Fully Accessible", "NETWORK": "TfL Rail", "DATASET_LAST_UPDATED": "2022-05-26T00:00:00Z", "FULL_NAME": "West Ealing station" }, "geometry": { "type": "Point", "coordinates": [ -0.321136386029036, 51.513471279486403, 0.0 ] } }
]
}
