{
"type": "FeatureCollection",
"name": "Tramlink_Stations",
"crs": { "type": "name", "properties": { "name": "urn:ogc:def:crs:OGC:1.3:CRS84" } },
"features": [
{ "type": "Feature", "properties": { "OBJECTID": 337, "NAME": "Phipps Bridge", "ACCESSIBILITY": "Fully Accessible", "NETWORK": "Tramlink", "DATASET_LAST_UPDATED": "2021-09-23T10:00:20Z", "FULL_NAME": "Phipps Bridge station" }, "geometry": { "type": "Point", "coordinates": [ -0.182340763850759, 51.403450061907002, -45.520499999998698 ] } },
{ "type": "Feature", "properties": { "OBJECTID": 338, "NAME": "Mitcham", "ACCESSIBILITY": "Fully Accessible", "NETWORK": "Tramlink", "DATASET_LAST_UPDATED": "2021-09-23T10:00:20Z", "FULL_NAME": "Mitcham station" }, "geometry": { "type": "Point", "coordinates": [ -0.171047700273265, 51.397522279143402, -45.5023999999976 ] } },
{ "type": "Feature", "properties": { "OBJECTID": 339, "NAME": "Mitcham Junction (Tramlink)", "ACCESSIBILITY": "Fully Accessible", "NETWORK": "Tramlink", "DATASET_LAST_UPDATED": "2021-09-23T10:00:20Z", "FULL_NAME": "Mitcham Junction (Tramlink) station" }, "geometry": { "type": "Point", "coordinates": [ -0.157306707555269, 51.392654705950598, -45.4814000000042 ] } },
{ "type": "Feature", "properties": { "OBJECTID": 347, "NAME": "Dundonald Road", "ACCESSIBILITY": "Fully Accessible", "NETWORK": "Tramlink", "DATASET_LAST_UPDATED": "2021-09-23T10:00:20Z", "FULL_NAME": "Dundonald Road station" }, "geometry": { "type": "Point", "coordinates": [ -0.207685698230667, 51.417605088324997, -45.5647999999928 ] } },
{ "type": "Feature", "properties": { "OBJECTID": 348, "NAME": "Merton Park", "ACCESSIBILITY": "Fully Accessible", "NETWORK": "Tramlink", "DATASET_LAST_UPDATED": "2021-09-23T10:00:20Z", "FULL_NAME": "Merton Park station" }, "geometry": { "type": "Point", "coordinates": [ -0.201341970953895, 51.4137255116623, -45.5528000000049 ] } },
{ "type": "Feature", "properties": { "OBJECTID": 349, "NAME": "Morden Road", "ACCESSIBILITY": "Fully Accessible", "NETWORK": "Tramlink", "DATASET_LAST_UPDATED": "2021-09-23T10:00:20Z", "FULL_NAME": "Morden Road station" }, "geometry": { "type": "Point", "coordinates": [ -0.192910225780995, 51.408865895851903, -45.538000000000501 ] } },
{ "type": "Feature", "properties": { "OBJECTID": 350, "NAME": "Beddington Lane", "ACCESSIBILITY": "Fully Accessible", "NETWORK": "Tramlink", "DATASET_LAST_UPDATED": "2021-09-23T10:00:20Z", "FULL_NAME": "Beddington Lane station" }, "geometry": { "type": "Point", "coordinates": [ -0.1428353445688, 51.389435031408198, -45.461299999995397 ] } },
{ "type": "Feature", "properties": { "OBJECTID": 351, "NAME": "Therapia Lane", "ACCESSIBILITY": "Fully Accessible", "NETWORK": "Tramlink", "DATASET_LAST_UPDATED": "2021-09-23T10:00:20Z", "FULL_NAME": "Therapia Lane station" }, "geometry": { "type": "Point", "coordinates": [ -0.129090979341166, 51.385678831175603, -45.4424 ] } },
{ "type": "Feature", "properties": { "OBJECTID": 352, "NAME": "Ampere Way", "ACCESSIBILITY": "Fully Accessible", "NETWORK": "Tramlink", "DATASET_LAST_UPDATED": "2021-09-23T10:00:20Z", "FULL_NAME": "Ampere Way station" }, "geometry": { "type": "Point", "coordinates": [ -0.123749035393138, 51.382378009152099, -45.433699999994097 ] } },
{ "type": "Feature", "properties": { "OBJECTID": 353, "NAME": "Wandle Park", "ACCESSIBILITY": "Fully Accessible", "NETWORK": "Tramlink", "DATASET_LAST_UPDATED": "2021-09-23T10:00:20Z", "FULL_NAME": "Wandle Park station" }, "geometry": { "type": "Point", "coordinates": [ -0.113347294006269, 51.3734644787354, -45.415900000007198 ] } },
{ "type": "Feature", "properties": { "OBJECTID": 354, "NAME": "Reeves Corner", "ACCESSIBILITY": "Fully Accessible", "NETWORK": "Tramlink", "DATASET_LAST_UPDATED": "2021-09-23T10:00:20Z", "FULL_NAME": "Reeves Corner station" }, "geometry": { "type": "Point", "coordinates": [ -0.106266229730183, 51.374788966983303, -45.409599999999003 ] } },
{ "type": "Feature", "properties": { "OBJECTID": 355, "NAME": "Centrale", "ACCESSIBILITY": "Fully Accessible", "NETWORK": "Tramlink", "DATASET_LAST_UPDATED": "2021-09-23T10:00:20Z", "FULL_NAME": "Centrale station" }, "geometry": { "type": "Point", "coordinates": [ -0.103873968890286, 51.375780343808898, -45.407800000000897 ] } },
{ "type": "Feature", "properties": { "OBJECTID": 356, "NAME": "West Croydon (Tramlink)", "ACCESSIBILITY": "Fully Accessible", "NETWORK": "Tramlink", "DATASET_LAST_UPDATED": "2021-09-23T10:00:20Z", "FULL_NAME": "West Croydon (Tramlink) station" }, "geometry": { "type": "Point", "coordinates": [ -0.101674056269223, 51.378940144411096, -45.408100000000601 ] } },
{ "type": "Feature", "properties": { "OBJECTID": 443, "NAME": "Wellesley Road", "ACCESSIBILITY": "Fully Accessible", "NETWORK": "Tramlink", "DATASET_LAST_UPDATED": "2021-09-23T10:00:20Z", "FULL_NAME": "Wellesley Road station" }, "geometry": { "type": "Point", "coordinates": [ -0.097557660310005, 51.375524452447301, -45.401899999997099 ] } },
{ "type": "Feature", "properties": { "OBJECTID": 444, "NAME": "Church Street", "ACCESSIBILITY": "Fully Accessible", "NETWORK": "Tramlink", "DATASET_LAST_UPDATED": "2021-09-23T10:00:20Z", "FULL_NAME": "Church Street station" }, "geometry": { "type": "Point", "coordinates": [ -0.104373798630002, 51.373721102982003, -45.407099999996703 ] } },
{ "type": "Feature", "properties": { "OBJECTID": 445, "NAME": "George Street", "ACCESSIBILITY": "Fully Accessible", "NETWORK": "Tramlink", "DATASET_LAST_UPDATED": "2021-09-23T10:00:20Z", "FULL_NAME": "George Street station" }, "geometry": { "type": "Point", "coordinates": [ -0.099037809748122, 51.373907222194902, -45.402199999996803 ] } },
{ "type": "Feature", "properties": { "OBJECTID": 446, "NAME": "Lebanon Road", "ACCESSIBILITY": "Fully Accessible", "NETWORK": "Tramlink", "DATASET_LAST_UPDATED": "2021-09-23T10:00:20Z", "FULL_NAME": "Lebanon Road station" }, "geometry": { "type": "Point", "coordinates": [ -0.085476656654502, 51.375208645514299, -45.390799999993803 ] } },
{ "type": "Feature", "properties": { "OBJECTID": 447, "NAME": "Sandilands", "ACCESSIBILITY": "Fully Accessible", "NETWORK": "Tramlink", "DATASET_LAST_UPDATED": "2021-09-23T10:00:20Z", "FULL_NAME": "Sandilands station" }, "geometry": { "type": "Point", "coordinates": [ -0.077705626963934, 51.374940999215497, -45.383799999996 ] } },
{ "type": "Feature", "properties": { "OBJECTID": 448, "NAME": "Lloyd Park", "ACCESSIBILITY": "Fully Accessible", "NETWORK": "Tramlink", "DATASET_LAST_UPDATED": "2021-09-23T10:00:20Z", "FULL_NAME": "Lloyd Park station" }, "geometry": { "type": "Point", "coordinates": [ -0.080667797282102, 51.364197806496101, -45.380499999999302 ] } },
{ "type": "Feature", "properties": { "OBJECTID": 449, "NAME": "Coombe Lane", "ACCESSIBILITY": "Fully Accessible", "NETWORK": "Tramlink", "DATASET_LAST_UPDATED": "2021-09-23T10:00:20Z", "FULL_NAME": "Coombe Lane station" }, "geometry": { "type": "Point", "coordinates": [ -0.060102180262437, 51.359805941724098, -45.360799999994903 ] } },
{ "type": "Feature", "properties": { "OBJECTID": 450, "NAME": "Gravel Hill", "ACCESSIBILITY": "Fully Accessible", "NETWORK": "Tramlink", "DATASET_LAST_UPDATED": "2021-09-23T10:00:20Z", "FULL_NAME": "Gravel Hill station" }, "geometry": { "type": "Point", "coordinates": [ -0.042887774088859, 51.3545461757586, -45.342000000004198 ] } },
{ "type": "Feature", "properties": { "OBJECTID": 451, "NAME": "Addington Village", "ACCESSIBILITY": "Fully Accessible", "NETWORK": "Tramlink", "DATASET_LAST_UPDATED": "2021-09-23T10:00:20Z", "FULL_NAME": "Addington Village station" }, "geometry": { "type": "Point", "coordinates": [ -0.032868909195361, 51.356238614511298, -45.332899999993998 ] } },
{ "type": "Feature", "properties": { "OBJECTID": 452, "NAME": "New Addington", "ACCESSIBILITY": "Fully Accessible", "NETWORK": "Tramlink", "DATASET_LAST_UPDATED": "2021-09-23T10:00:20Z", "FULL_NAME": "New Addington station" }, "geometry": { "type": "Point", "coordinates": [ -0.017202885355797, 51.342488215166199, -45.313699999998803 ] } },
{ "type": "Feature", "properties": { "OBJECTID": 453, "NAME": "Fieldway", "ACCESSIBILITY": "Fully Accessible", "NETWORK": "Tramlink", "DATASET_LAST_UPDATED": "2021-09-23T10:00:20Z", "FULL_NAME": "Fieldway station" }, "geometry": { "type": "Point", "coordinates": [ -0.024225285893752, 51.350960296477602, -45.323199999998899 ] } },
{ "type": "Feature", "properties": { "OBJECTID": 454, "NAME": "Addiscombe", "ACCESSIBILITY": "Fully Accessible", "NETWORK": "Tramlink", "DATASET_LAST_UPDATED": "2021-09-23T10:00:20Z", "FULL_NAME": "Addiscombe station" }, "geometry": { "type": "Point", "coordinates": [ -0.073207348271058, 51.379867513080299, -45.382599999997197 ] } },
{ "type": "Feature", "properties": { "OBJECTID": 455, "NAME": "Blackhorse Lane", "ACCESSIBILITY": "Fully Accessible", "NETWORK": "Tramlink", "DATASET_LAST_UPDATED": "2021-09-23T10:00:20Z", "FULL_NAME": "Blackhorse Lane station" }, "geometry": { "type": "Point", "coordinates": [ -0.07028602008837, 51.384931157471698, -45.382599999997197 ] } },
{ "type": "Feature", "properties": { "OBJECTID": 456, "NAME": "Woodside", "ACCESSIBILITY": "Fully Accessible", "NETWORK": "Tramlink", "DATASET_LAST_UPDATED": "2021-09-23T10:00:20Z", "FULL_NAME": "Woodside station" }, "geometry": { "type": "Point", "coordinates": [ -0.065548624325039, 51.386978028997802, -45.378800000005903 ] } },
{ "type": "Feature", "properties": { "OBJECTID": 457, "NAME": "Arena", "ACCESSIBILITY": "Fully Accessible", "NETWORK": "Tramlink", "DATASET_LAST_UPDATED": "2021-09-23T10:00:20Z", "FULL_NAME": "Arena station" }, "geometry": { "type": "Point", "coordinates": [ -0.058263005195456, 51.3915807433007, -45.373500000001499 ] } },
{ "type": "Feature", "properties": { "OBJECTID": 458, "NAME": "Elmers End (Tramlink)", "ACCESSIBILITY": "Fully Accessible", "NETWORK": "Tramlink", "DATASET_LAST_UPDATED": "2021-09-23T10:00:20Z", "FULL_NAME": "Elmers End (Tramlink) station" }, "geometry": { "type": "Point", "coordinates": [ -0.04956414781369, 51.398313707665899, -45.369399999995899 ] } },
{ "type": "Feature", "properties": { "OBJECTID": 459, "NAME": "Birkbeck (Tramlink)", "ACCESSIBILITY": "Fully Accessible", "NETWORK": "Tramlink", "DATASET_LAST_UPDATED": "2021-09-23T10:00:20Z", "FULL_NAME": "Birkbeck (Tramlink) station" }, "geometry": { "type": "Point", "coordinates": [ -0.056164298874071, 51.403565549760501, -45.381599999993298 ] } },
{ "type": "Feature", "properties": { "OBJECTID": 460, "NAME": "Avenue Road", "ACCESSIBILITY": "Fully Accessible", "NETWORK": "Tramlink", "DATASET_LAST_UPDATED": "2021-09-23T10:00:20Z", "FULL_NAME": "Avenue Road station" }, "geometry": { "type": "Point", "coordinates": [ -0.049703148294696, 51.406681991330302, -45.376600000003201 ] } },
{ "type": "Feature", "properties": { "OBJECTID": 461, "NAME": "Beckenham Road", "ACCESSIBILITY": "Fully Accessible", "NETWORK": "Tramlink", "DATASET_LAST_UPDATED": "2021-09-23T10:00:20Z", "FULL_NAME": "Beckenham Road station" }, "geometry": { "type": "Point", "coordinates": [ -0.043179371539829, 51.409618550101499, -45.371499999993802 ] } },
{ "type": "Feature", "properties": { "OBJECTID": 462, "NAME": "Beckenham Junction (Tramlink)", "ACCESSIBILITY": "Fully Accessible", "NETWORK": "Tramlink", "DATASET_LAST_UPDATED": "2021-09-23T10:00:20Z", "FULL_NAME": "Beckenham Junction (Tramlink) station" }, "geometry": { "type": "Point", "coordinates": [ -0.026223978812941, 51.410974370118197, -45.354500000001302 ] } },
{ "type": "Feature", "properties": { "OBJECTID": 488, "NAME": "Belgrave Walk", "ACCESSIBILITY": "Fully Accessible", "NETWORK": "Tramlink", "DATASET_LAST_UPDATED": "2021-09-23T10:00:20Z", "FULL_NAME": "Belgrave Walk station" }, "geometry": { "type": "Point", "coordinates": [ -0.178411225408822, 51.400965737135003, -45.5139000000054 ] } },
{ "type": "Feature", "properties": { "OBJECTID": 491, "NAME": "Wimbledon (Tramlink)", "ACCESSIBILITY": "Fully Accessible", "NETWORK": "Tramlink", "DATASET_LAST_UPDATED": "2021-09-23T10:00:20Z", "FULL_NAME": "Wimbledon (Tramlink) station" }, "geometry": { "type": "Point", "coordinates": [ -0.205965274626793, 51.4210081193281, -45.566800000000498 ] } },
{ "type": "Feature", "properties": { "OBJECTID": 492, "NAME": "Waddon Marsh", "ACCESSIBILITY": "Fully Accessible", "NETWORK": "Tramlink", "DATASET_LAST_UPDATED": "2021-09-23T10:00:20Z", "FULL_NAME": "Waddon Marsh station" }, "geometry": { "type": "Point", "coordinates": [ -0.117855756586942, 51.377003622478597, -45.422999999995199 ] } },
{ "type": "Feature", "properties": { "OBJECTID": 493, "NAME": "East Croydon (Tramlink)", "ACCESSIBILITY": "Fully Accessible", "NETWORK": "Tramlink", "DATASET_LAST_UPDATED": "2021-09-23T10:00:20Z", "FULL_NAME": "East Croydon (Tramlink) station" }, "geometry": { "type": "Point", "coordinates": [ -0.092640963031593, 51.374842082278299, -45.396999999997199 ] } },
{ "type": "Feature", "properties": { "OBJECTID": 494, "NAME": "King Henry's Drive", "ACCESSIBILITY": "Fully Accessible", "NETWORK": "Tramlink", "DATASET_LAST_UPDATED": "2021-09-23T10:00:20Z", "FULL_NAME": "King Henry's Drive station" }, "geometry": { "type": "Point", "coordinates": [ -0.020250577138913, 51.3453815305121, -45.317500000004699 ] } },
{ "type": "Feature", "properties": { "OBJECTID": 495, "NAME": "Harrington Road", "ACCESSIBILITY": "Fully Accessible", "NETWORK": "Tramlink", "DATASET_LAST_UPDATED": "2021-09-23T10:00:20Z", "FULL_NAME": "Harrington Road station" }, "geometry": { "type": "Point", "coordinates": [ -0.060468730059347, 51.399673431525599, -45.382700000001897 ] } }
]
}
